NAME,STATE,COUNTY,CITY,MAX_VOLT,MIN_VOLT,LINES,LATITUDE,LONGITUDE,LON,LAT
UNKNOWN108092,AR,LAWRENCE,POWHATAN,-999999,-999999,0,36.09084574,-91.13421235,-91.13421234999998,36.090845740000006
UNKNOWN108093,AR,LAWRENCE,STRAWBERRY,-999999,-999999,1,36.00534901,-91.25223383,-91.25223383,36.00534900999999
UNKNOWN108094,AR,LEE,MARIANNA,115,115,2,34.76275721,-90.76799135,-90.76799135,34.76275720999999
UNKNOWN108095,AR,LEE,MARIANNA,115,115,1,34.80460717,-90.826745,-90.826745,34.80460717
UNKNOWN108096,AR,LEE,MORO,115,115,2,34.83489295,-90.99592468,-90.99592468,34.83489294999999
UNKNOWN108097,AR,LEE,MORO,69,69,1,34.7856055,-90.97880078,-90.97880078,34.785605499999996
UNKNOWN108098,AR,LEE,BRINKLEY,-999999,-999999,0,34.74257426,-91.10180844,-91.10180844,34.74257425999999
UNKNOWN108099,AR,LINCOLN,GRADY,115,115,2,34.04125795,-91.6183123,-91.61831229999999,34.04125795000001
UNKNOWN108100,AR,LINCOLN,GRADY,-999999,-999999,2,33.81916652,-91.74802461,-91.74802461,33.819166519999996
UNKNOWN108101,AR,LINCOLN,YORKTOWN,-999999,-999999,1,34.07560932,-91.82096843,-91.82096843,34.075609320000005
STAR CITY,AR,LINCOLN,STAR CITY,-999999,-999999,4,33.94018823,-91.85282889,-91.85282889,33.94018823
UNKNOWN108103,AR,LINCOLN,STAR CITY,115,-999999,6,33.92880502,-91.94216426,-91.94216426000001,33.92880501999999
UNKNOWN108104,AR,LITTLE RIVER,FOREMAN,69,-999999,3,33.72288892,-94.3808424,-94.38084239999999,33.722888919999995
UNKNOWN108105,AR,LITTLE RIVER,FOREMAN,69,69,2,33.6979928,-94.41944295,-94.41944295,33.6979928
FOREMAN NORTH,AR,LITTLE RIVER,FOREMAN,69,69,2,33.74480925,-94.37935737,-94.37935736999998,33.744809249999996
UNKNOWN108107,AR,LITTLE RIVER,FOREMAN,138,69,3,33.60193168,-94.36013014,-94.36013014,33.60193167999999
UNKNOWN108108,AR,LOGAN,NEW BLAINE,-999999,-999999,0,35.29436926,-93.46450947,-93.46450947,35.29436926
UNKNOWN108109,AR,LOGAN,PARIS,-999999,-999999,0,35.31265167,-93.79157579,-93.79157579,35.31265167
UNKNOWN108110,AR,LOGAN,MAGAZINE,161,161,3,35.21628047,-93.80129452,-93.80129452,35.21628047
UNKNOWN108112,AR,LOGAN,BOONEVILLE,69,69,2,35.13095664,-93.946074,-93.946074,35.130956639999994
UNKNOWN108113,AR,LOGAN,PARIS,-999999,-999999,0,35.31712974,-93.70222392,-93.70222392,35.31712974
WARD,AR,LONOKE,AUSTIN,115,-999999,4,35.0173411,-91.98670336,-91.98670336,35.01734109999999
MOUNT CARMEL,AR,LONOKE,CABOT,115,115,2,34.9338104,-91.96271908,-91.96271908,34.9338104
UNKNOWN108116,AR,LONOKE,LONOKE,115,115,1,34.79581194,-91.99943103,-91.99943103,34.79581193999999
UNKNOWN108117,AR,LONOKE,ENGLAND,115,115,1,34.59669708,-91.81078155,-91.81078155,34.59669707999999
UNKNOWN108118,AR,LONOKE,LONOKE,115,115,2,34.78207056,-91.85190207,-91.85190207,34.78207056
NELSON,AR,LONOKE,LONOKE,115,115,2,34.90757794,-91.87032082,-91.87032082,34.907577939999996
UNKNOWN108120,AR,LONOKE,CARLISLE,115,115,2,34.77301265,-91.72537958,-91.72537958,34.77301265
ENGLAND,AR,LONOKE,ENGLAND,115,115,3,34.58424272,-91.99197638,-91.99197638,34.58424272
CABOT SOUTH,AR,LONOKE,LONOKE,115,115,2,34.87610447,-91.9828411,-91.9828411,34.876104469999994
UNKNOWN108124,AR,LONOKE,CABOT,115,115,2,34.97994648,-92.02479815,-92.02479815,34.979946479999995
UNKNOWN108125,AR,LONOKE,JACKSONVILLE,115,115,2,34.83288745,-92.04475673,-92.04475672999999,34.83288745
UNKNOWN108126,AR,MADISON,HUNTSVILLE,69,69,2,36.09860967,-93.72287486,-93.72287486,36.098609669999995
UNKNOWN108127,AR,MADISON,HUNTSVILLE,69,69,2,36.27019135,-93.80946411,-93.80946411,36.27019134999998
UNKNOWN108128,AR,MADISON,HINDSVILLE,69,69,2,36.15518787,-93.88968069,-93.88968069,36.15518786999999
UNKNOWN108129,AR,MADISON,WESLEY,69,69,2,36.02818963,-93.92372651,-93.92372651,36.02818963
UNKNOWN108130,AR,MADISON,HUNTSVILLE,69,69,2,36.08960572,-93.54953922,-93.54953922,36.089605719999994
FLIPPIN,AR,MARION,FLIPPIN,161,161,2,36.29927352,-92.60425587,-92.60425587,36.29927351999999
ARCH SMITH,AR,MILLER,FOUKE,69,69,2,33.33102467,-93.94629887,-93.94629887,33.33102466999999
DOODRIDGE,AR,MILLER,DODDRIDGE,69,69,1,33.10552253,-93.95503558,-93.95503558,33.10552253
SOUTH TEXA.,AR,MILLER,TEXARKANA,69,69,3,33.3297508,-94.03930467,-94.03930467,33.329750799999985
BLOOMBURG M.P.,AR,MILLER,DODDRIDGE,69,-999999,3,33.13375224,-94.04286255,-94.04286255,33.13375224
UNKNOWN108136,AR,MISSISSIPPI,WILSON,161,161,2,35.59927905,-90.08247987,-90.08247987,35.59927905
UNKNOWN108137,AR,MISSISSIPPI,MANILA,-999999,-999999,0,35.86596695,-90.17800619,-90.17800619,35.865966949999994
UNKNOWN108138,AR,MISSISSIPPI,LEACHVILLE,161,161,2,35.88898029,-90.26261385,-90.26261384999998,35.88898028999999
UNKNOWN108139,AR,MISSISSIPPI,BLYTHEVILLE,161,-999999,4,35.93993408,-89.71875175,-89.71875175000001,35.93993407999999
UNKNOWN108140,AR,MISSISSIPPI,BLYTHEVILLE,-999999,-999999,2,35.92807409,-89.75771728,-89.75771728000001,35.92807409
UNKNOWN108141,AR,MISSISSIPPI,BLYTHEVILLE,161,161,1,35.91439255,-89.78532701,-89.78532701,35.91439255000001
UNKNOWN108142,AR,MISSISSIPPI,BLYTHEVILLE,161,161,8,35.89947657,-89.78300486,-89.78300486,35.89947656999999
UNKNOWN107655,WI,WASHBURN,SHELL LAKE,161,69,5,45.76842336,-91.86474437,-91.86474437,45.76842335999999
UNKNOWN107656,WI,PRICE,PRENTICE,115,69,3,45.53850181,-90.31181231,-90.31181231000001,45.53850180999999
UNKNOWN107657,WI,CHIPPEWA,HOLCOMBE,115,-999999,4,45.22355314,-91.12758237,-91.12758237,45.22355314
SOUTH SHEBOYGAN FALLS,WI,SHEBOYGAN,LIMA TOWN OF,138,69,3,43.71099338,-87.83839599,-87.83839599,43.71099338
CHALK HILLS HY,MI,MENOMINEE,DAGGETT,138,-999999,3,45.51378064,-87.80092075,-87.80092075,45.513780639999986
MEADOWS,WI,CALUMET,MENASHA,138,138,1,44.21619818,-88.4018233,-88.4018233,44.21619817999999
HUSTISFORD,WI,DODGE,HUSTISFORD,138,138,2,43.344639,-88.595631,-88.59563099999998,43.34463899999998
UNKNOWN107663,WI,CRAWFORD,EASTMAN,161,161,3,43.287783,-91.006561,-91.00656100000002,43.28778299999999
SCOTTSBORO,AL,JACKSON,SCOTTSBORO,161,-999999,3,34.67668021,-86.01715156,-86.01715156000002,34.67668021
UNKNOWN107704,AR,MISSISSIPPI,BLYTHEVILLE,161,161,2,35.93580191,-89.87628896,-89.87628896,35.93580191
UNKNOWN107706,AR,MISSISSIPPI,BLYTHEVILLE,161,161,2,35.86867041,-90.01721587,-90.01721586999999,35.86867040999999
UNKNOWN107707,AR,MISSISSIPPI,BLYTHEVILLE,-999999,-999999,0,35.92163928,-89.89063988,-89.89063988,35.92163928
UNKNOWN107708,AR,MISSISSIPPI,BLYTHEVILLE,161,161,4,35.90801599,-89.91096342,-89.91096342,35.908015989999996
UNKNOWN107709,AR,MONROE,BRINKLEY,115,115,2,34.89722531,-91.20242501,-91.20242501,34.89722531
UNKNOWN107711,AR,MONROE,CLARENDON,69,69,2,34.76581741,-91.24534388,-91.24534388,34.76581740999999
UNKNOWN107712,AR,MONROE,HOLLY GROVE,69,69,1,34.50162751,-91.13712121,-91.13712121,34.50162750999999
UNKNOWN107713,AR,MONTGOMERY,CADDO GAP,115,115,2,34.35509837,-93.56147485,-93.56147485,34.35509837000002
UNKNOWN107714,AR,MONTGOMERY,MT IDA,115,115,1,34.49598419,-93.68613914,-93.68613914000001,34.495984189999994
UNKNOWN107715,AR,NEVADA,ROSSTON,115,115,1,33.60477365,-93.36985993,-93.36985993,33.60477365
UNKNOWN107716,AR,NEWTON,JASPER,161,161,1,36.01366,-93.17890996,-93.17890996,36.01365999999999
UNKNOWN107717,AR,NEWTON,JASPER,161,161,1,36.10954543,-93.12381957,-93.12381956999998,36.10954543
BEARDEN,AR,OUACHITA,BEARDEN,115,115,2,33.7354121,-92.61756612,-92.61756612,33.73541209999999
UNKNOWN107719,AR,OUACHITA,BEARDEN,-999999,-999999,1,33.7839731,-92.69785948,-92.69785948,33.78397309999998
UNKNOWN107720,AR,OUACHITA,CAMDEN,-999999,-999999,3,33.65442278,-92.78764222,-92.78764222,33.654422780000004
UNKNOWN107721,AR,OUACHITA,CAMDEN,115,115,3,33.59510649,-92.83008884,-92.83008884,33.59510649
UNKNOWN107722,AR,OUACHITA,CAMDEN,115,-999999,5,33.56393907,-92.79226175,-92.79226175,33.563939069999996
UNKNOWN107723,AR,OUACHITA,CAMDEN,115,115,4,33.54228144,-92.8224035,-92.82240350000001,33.54228144
UNKNOWN107724,AR,OUACHITA,CAMDEN,115,115,2,33.50401698,-92.89547289,-92.89547289,33.50401698
UNKNOWN107725,AR,OUACHITA,STEPHENS,115,115,2,33.40814743,-93.05922153,-93.05922152999999,33.408147429999985
UNKNOWN107726,AR,PERRY,PLAINVIEW,115,115,2,34.8737767,-93.0893374,-93.0893374,34.8737767
UNKNOWN107727,AR,PERRY,ADONA,-999999,-999999,1,35.03519767,-92.92866394,-92.92866394000002,35.035197669999995
UNKNOWN107728,AR,PHILLIPS,POPLAR GROVE,115,115,2,34.56236482,-90.79405617,-90.79405617,34.56236481999999
UNKNOWN107729,AR,PHILLIPS,ELAINE,115,115,2,34.31708589,-90.86726075,-90.86726075000001,34.317085889999994
UNKNOWN107730,AR,PHILLIPS,HELENA,115,115,1,34.39998996,-90.64317551,-90.64317551,34.39998995999999
UNKNOWN107731,AR,PIKE,MURFREESBORO,138,115,2,34.07870776,-93.62674632,-93.62674632,34.078707759999986
UNKNOWN107732,AR,PIKE,DELIGHT,-999999,-999999,0,34.03283425,-93.48383416,-93.48383416,34.03283425
UNKNOWN107733,AR,PIKE,MURFREESBORO,69,69,3,34.06527749,-93.7009416,-93.7009416,34.06527749
UNKNOWN107734,AR,PIKE,NASHVILLE,69,69,1,34.08983055,-93.81750461,-93.81750461000001,34.089830549999995
UNKNOWN107735,AR,PIKE,KIRBY,69,69,1,34.24686301,-93.70752914,-93.70752914,34.24686301
UNKNOWN107736,AR,POINSETT,HARRISBURG,161,161,1,35.56358932,-90.74906029,-90.74906029,35.56358931999999
UNKNOWN107737,AR,POINSETT,TRUMANN,69,69,2,35.69372499,-90.52609724,-90.52609724,35.69372499
UNKNOWN107738,AR,POINSETT,TRUMANN,161,161,2,35.65328696,-90.49976518,-90.49976518,35.653286959999996
UNKNOWN107739,AR,POINSETT,TRUMANN,69,69,3,35.60613993,-90.58118234,-90.58118234000001,35.60613993
UNKNOWN107740,AR,POINSETT,TYRONZA,161,-999999,4,35.51369186,-90.41643721,-90.41643721,35.513691859999994
LEPANTO,AR,POINSETT,LEPANTO,-999999,-999999,1,35.61278948,-90.32174494,-90.32174494,35.61278948
UNKNOWN107742,AR,POLK,COVE,-999999,-999999,0,34.43885864,-94.39904313,-94.39904312999998,34.43885864
UNKNOWN107743,AR,POLK,MENA,-999999,-999999,2,34.57994687,-94.19247152,-94.19247152,34.57994687000001
UNKNOWN107744,AR,POLK,MENA,69,-999999,2,34.55300789,-94.21849912,-94.21849912,34.553007889999996
UNKNOWN107745,AR,POLK,MENA,-999999,-999999,1,34.53929241,-93.99938007,-93.99938006999999,34.53929241
UNKNOWN107748,AR,POPE,DOVER,69,69,1,35.46474565,-93.17454994,-93.17454994,35.46474565
UNKNOWN107749,AR,POPE,RUSSELLVILLE,161,161,2,35.3630776,-93.00055805,-93.00055805,35.36307759999998
UNKNOWN107750,AR,POPE,RUSSELLVILLE,161,161,2,35.30561265,-93.12320701,-93.12320701000002,35.30561264999999
UNKNOWN107751,AR,PRAIRIE,DE VALLS BLUFF,115,115,2,34.79361482,-91.46718586,-91.46718586,34.79361482000001
HAZEN,AR,PRAIRIE,DE VALLS BLUFF,115,115,2,34.77508003,-91.54970468,-91.54970467999999,34.77508003
UNKNOWN107753,AR,PRAIRIE,DES ARC,115,115,2,34.98473713,-91.5096396,-91.5096396,34.98473713
UNKNOWN107754,AR,PULASKI,BIGELOW,161,161,2,34.88978923,-92.68059364,-92.68059364,34.88978923
LITTLE ROCK ROLAND ROAD,AR,PULASKI,ROLAND,115,115,1,34.85052089,-92.4851292,-92.4851292,34.85052088999999
UNKNOWN107756,AR,PULASKI,NORTH LITTLE ROCK,115,115,2,34.74240417,-92.12946871,-92.12946871,34.74240417000001
ZION HILL,AR,PULASKI,CABOT,-999999,-999999,1,34.97395922,-92.139628,-92.139628,34.97395921999999
UNKNOWN107758,AR,PULASKI,MAUMELLE,115,115,2,34.88565961,-92.39082039,-92.39082039,34.88565961
LITTLE ROCK PINNACLE,AR,PULASKI,LITTLE ROCK,161,115,4,34.81167626,-92.48789354,-92.48789354,34.81167626
UNKNOWN107760,AR,PULASKI,LITTLE ROCK,115,115,3,34.76007738,-92.45597423,-92.45597423,34.76007737999999
UNKNOWN107761,AR,PULASKI,LITTLE ROCK,115,115,2,34.79823979,-92.40969113,-92.40969113,34.79823979
UNKNOWN107762,AR,PULASKI,LITTLE ROCK,115,115,2,34.69048529,-92.37926636,-92.37926636,34.69048529
UNKNOWN107763,AR,PULASKI,LITTLE ROCK,115,115,2,34.64184897,-92.410561,-92.41056100000002,34.64184897
UNKNOWN107765,AR,PULASKI,LITTLE ROCK,115,115,2,34.66100852,-92.37712484,-92.37712484,34.66100852
NORTH LITTLE ROCK LEVY,AR,PULASKI,NORTH LITTLE ROCK,115,115,4,34.79836284,-92.28267389,-92.28267389,34.798362839999996
UNKNOWN107767,AR,PULASKI,NORTH LITTLE ROCK,115,115,2,34.80398647,-92.28250216,-92.28250216,34.80398646999999
UNKNOWN107768,AR,PULASKI,LITTLE ROCK,115,115,2,34.78313784,-92.33224202,-92.33224202,34.783137839999995
UNKNOWN107769,AR,PULASKI,LITTLE ROCK,115,115,3,34.75662478,-92.34695328,-92.34695328,34.75662478
UNKNOWN107770,AR,PULASKI,LITTLE ROCK,115,115,5,34.72108691,-92.30511242,-92.30511242,34.72108691
UNKNOWN107771,AR,PULASKI,LITTLE ROCK,115,115,2,34.69403226,-92.31563816,-92.31563816000002,34.69403226000001
ALMYRA,AR,ARKANSAS,ALMYRA,115,115,2,34.40258329,-91.40837609,-91.40837609,34.40258329
UNKNOWN107881,AR,ARKANSAS,STUTTGART,115,115,2,34.55781576,-91.46642304,-91.46642304,34.55781576
STUTTGART RICUSKEY,AR,ARKANSAS,STUTTGART,230,115,5,34.47576243,-91.54195665,-91.54195665,34.47576243000001
UNKNOWN107883,AR,ARKANSAS,STUTTGART,115,115,1,34.52270321,-91.57432005,-91.57432005,34.522703209999996
UNKNOWN107884,AR,ARKANSAS,ALMYRA,69,69,1,34.45161801,-91.32277088,-91.32277088,34.45161800999999
DELUCE,AR,ARKANSAS,GILLETT,115,69,3,34.20963756,-91.34304561,-91.34304561,34.20963756
GILLETT,AR,ARKANSAS,GILLETT,115,115,2,34.14939912,-91.34436859,-91.34436859,34.14939911999999
UNKNOWN107887,AR,ARKANSAS,DE WITT,69,69,2,34.31173089,-91.29660549,-91.29660549,34.31173089
UNKNOWN107888,AR,ARKANSAS,TICHNOR,69,69,2,34.09077278,-91.24773501,-91.24773501,34.090772779999995
UNKNOWN107889,AR,ASHLEY,MONTROSE,115,115,2,33.27605343,-91.66592102,-91.66592102,33.27605342999999
UNKNOWN107890,AR,ASHLEY,HAMBURG,115,115,2,33.21108984,-91.79443509,-91.79443509,33.21108984
UNKNOWN107891,AR,ASHLEY,HAMBURG,115,115,2,33.25121732,-91.92390812,-91.92390812000001,33.251217319999995
UNKNOWN107892,AR,ASHLEY,CROSSETT,115,115,3,33.09880482,-91.94938265,-91.94938265,33.098804820000005
UNKNOWN107893,AR,ASHLEY,CROSSETT,115,115,2,33.05917148,-91.95124407,-91.95124407,33.05917148000001
UNKNOWN107894,AR,BAXTER,LAKEVIEW,69,69,1,36.37253966,-92.53286362,-92.53286362000001,36.37253966000001
UNKNOWN107895,AR,BAXTER,MIDWAY,161,69,7,36.36832515,-92.45414987,-92.45414987,36.36832514999998
UNKNOWN107896,AR,BAXTER,MIDWAY,69,69,3,36.37752566,-92.46093401,-92.46093401,36.377525659999996
UNKNOWN107897,AR,BAXTER,MOUNTAIN HOME,69,69,2,36.29884482,-92.29929438,-92.29929438,36.29884482000001
TRACY,AR,BAXTER,MOUNTAIN HOME,69,69,1,36.31691695,-92.345178,-92.34517799999999,36.31691694999999
UNKNOWN107899,AR,BAXTER,MOUNTAIN HOME,161,161,2,36.31399006,-92.37466073,-92.37466073,36.313990059999995
UNKNOWN107900,AR,BAXTER,MOUNTAIN HOME,69,69,2,36.37629806,-92.31908565,-92.31908565,36.37629806
UNKNOWN107901,AR,BAXTER,HENDERSON,69,69,1,36.3765675,-92.20418197,-92.20418196999998,36.37656749999999
UNKNOWN107902,AR,BAXTER,MOUNTAIN HOME,69,69,2,36.37395599,-92.37037457,-92.37037457,36.37395599
SILOAM SPRINGS,AR,BENTON,SILOAM SPRINGS,161,69,5,36.15924213,-94.52709315,-94.52709315,36.159242129999996
UNKNOWN107904,AR,BENTON,GARFIELD,69,-999999,3,36.40727176,-94.01707875,-94.01707875000001,36.40727176
UNKNOWN107905,AR,BENTON,ROGERS,161,-999999,5,36.39753854,-94.00958878,-94.00958878,36.397538539999985
UNKNOWN107906,AR,BENTON,ROGERS,69,69,2,36.32090832,-94.06408866,-94.06408866,36.32090832
UNKNOWN107907,AR,BENTON,ROGERS,161,-999999,3,36.35482796,-94.12106413,-94.12106413,36.35482796
UNKNOWN107908,AR,BENTON,LOWELL,69,69,2,36.2518921,-94.10515488,-94.10515488,36.2518921
UNKNOWN107909,AR,BENTON,BELLA VISTA,69,69,2,36.47188736,-94.24357869,-94.24357869,36.47188735999999
UNKNOWN107910,AR,BENTON,BENTONVILLE,-999999,-999999,0,36.3935965,-94.20826826,-94.20826826,36.393596499999994
UNKNOWN107911,AR,BENTON,BENTONVILLE,-999999,-999999,0,36.35703899,-94.24880969,-94.24880969,36.35703898999999
UNKNOWN107912,AR,BENTON,BENTONVILLE,161,69,5,36.35829075,-94.24751782,-94.24751782,36.35829074999999
UNKNOWN107913,AR,BENTON,BENTONVILLE,161,-999999,6,36.35839759,-94.24565804,-94.24565804,36.358397589999996
UNKNOWN107914,AR,BENTON,BENTONVILLE,161,161,1,36.35926595,-94.24531579,-94.24531579,36.359265949999994
UNKNOWN107915,AR,BENTON,BENTONVILLE,-999999,-999999,2,36.36213835,-94.20932188,-94.20932188,36.362138349999995
UNKNOWN107916,AR,BENTON,ROGERS,69,69,2,36.31312091,-94.17085339,-94.17085339,36.31312090999999
UNKNOWN107917,AR,BENTON,BELLA VISTA,69,69,2,36.45101463,-94.30122906,-94.30122906,36.451014629999996
UNKNOWN107918,AR,BENTON,CENTERTON,161,161,2,36.35785064,-94.27635116,-94.27635116,36.35785063999998
UNKNOWN107919,AR,BENTON,GRAVETTE,69,69,3,36.37429914,-94.33914435,-94.33914435000001,36.37429914
UNKNOWN107920,AR,BENTON,GRAVETTE,69,69,2,36.37819125,-94.48674901,-94.48674901,36.37819124999999
UNKNOWN107921,AR,BENTON,DECATUR,161,161,2,36.31676186,-94.45536713,-94.45536713,36.31676186
UNKNOWN107922,AR,BENTON,GRAVETTE,69,69,2,36.43851466,-94.53381152,-94.53381152,36.438514659999996
UNKNOWN107923,AR,BENTON,HIWASSE,-999999,-999999,0,36.43131765,-94.33349548,-94.33349548,36.43131764999999
UNKNOWN107924,AR,BENTON,ROGERS,69,69,2,36.41738617,-94.13297577,-94.13297577000002,36.41738617
UNKNOWN107925,AR,BENTON,LOWELL,69,69,3,36.24810679,-94.17035171,-94.17035171,36.248106789999994
UNKNOWN107926,AR,BENTON,BELLA VISTA,69,69,2,36.47593625,-94.1942764,-94.19427640000002,36.475936250000004
UNKNOWN107927,AR,BENTON,GENTRY,161,161,2,36.25606419,-94.51024583,-94.51024583,36.25606419
UNKNOWN107928,AR,BENTON,GENTRY,345,161,9,36.25407972,-94.5274874,-94.5274874,36.25407972
UNKNOWN107930,AR,BOONE,HARRISON,161,161,4,36.22118139,-93.07259779,-93.07259779,36.22118139
UNKNOWN107931,AR,BOONE,OMAHA,161,161,1,36.45304429,-93.1715759,-93.1715759,36.45304429
UNKNOWN107932,AR,BOONE,EVERTON,161,161,2,36.12948889,-92.97102543,-92.97102543,36.12948888999999
UNKNOWN107933,AR,BOONE,HARRISON,161,161,3,36.19700022,-93.13140665,-93.13140665,36.19700022000001
UNKNOWN107934,AR,BRADLEY,HERMITAGE,115,115,2,33.42898254,-92.15596683,-92.15596682999998,33.42898253999999
UNKNOWN107935,AR,BRADLEY,JERSEY,115,115,2,33.33815376,-92.31092685,-92.31092685,33.33815376
UNKNOWN107936,AR,CALHOUN,HAMPTON,-999999,-999999,3,33.63021095,-92.70058683,-92.70058683,33.630210950000006
UNKNOWN107937,AR,CALHOUN,HAMPTON,-999999,-999999,2,33.53396039,-92.50625837,-92.50625837000001,33.53396039
UNKNOWN107938,AR,CALHOUN,HAMPTON,-999999,-999999,1,33.51762141,-92.35594502,-92.35594502,33.51762141
UNKNOWN107939,AR,CARROLL,GREEN FOREST,161,161,2,36.33676572,-93.46687741,-93.46687740999998,36.336765719999995
UNKNOWN107940,AR,CARROLL,BERRYVILLE,69,69,2,36.20959103,-93.48340595,-93.48340595000002,36.20959102999999
UNKNOWN107941,AR,CARROLL,BERRYVILLE,161,161,2,36.37743922,-93.5718459,-93.5718459,36.37743921999999
UNKNOWN107942,AR,CARROLL,BERRYVILLE,69,69,2,36.37006419,-93.54345901,-93.54345901,36.37006419
UNKNOWN107943,AR,CARROLL,BERRYVILLE,161,69,6,36.3910754,-93.63738161,-93.63738161,36.39107539999999
UNKNOWN107944,AR,CARROLL,EUREKA SPRINGS,69,69,2,36.39440138,-93.69447809,-93.69447809,36.394401379999984
EUREKA SPRINGS,AR,CARROLL,EUREKA SPRINGS,161,161,4,36.41069774,-93.74341686,-93.74341686,36.41069774
UNKNOWN107946,AR,CARROLL,EUREKA SPRINGS,161,161,1,36.40428189,-93.8274265,-93.8274265,36.404281889999986
UNKNOWN107947,AR,CARROLL,GREEN FOREST,161,161,2,36.32032811,-93.4342804,-93.4342804,36.320328110000005
UNKNOWN107949,AR,CHICOT,EUDORA,115,115,2,33.10952448,-91.28312671,-91.28312671,33.10952447999999
UNKNOWN107950,AR,CHICOT,DERMOTT,115,115,1,33.50683522,-91.43572847,-91.43572847,33.50683521999999
UNKNOWN107951,AR,CLARK,GURDON,115,115,2,33.92570577,-93.14168618,-93.14168618,33.92570577
UNKNOWN107952,AR,CLARK,ARKADELPHIA,115,115,2,34.14445552,-93.0623825,-93.06238250000001,34.14445552
UNKNOWN107953,AR,DALLAS,ARKADELPHIA,115,115,2,34.06033086,-92.88966873,-92.88966873,34.06033085999999
UNKNOWN107954,AR,CLARK,OKOLONA,-999999,-999999,0,33.99592326,-93.32206945,-93.32206945,33.995923259999984
UNKNOWN107955,AR,CLARK,GURDON,-999999,-999999,0,33.83239703,-93.12143229,-93.12143229,33.83239703
DATTO,AR,CLAY,CORNING,161,161,2,36.40829991,-90.72992025,-90.72992025,36.40829990999999
UNKNOWN107957,AR,CLAY,KNOBEL,-999999,-999999,0,36.33494206,-90.52434716,-90.52434716000002,36.33494206
UNKNOWN107958,AR,CLAY,POLLARD,161,161,1,36.49691664,-90.28840004,-90.28840004,36.496916639999995
RECTOR,AR,CLAY,RECTOR,161,161,2,36.25748636,-90.29690329,-90.29690329,36.257486359999994
UNKNOWN107960,AR,CLAY,PIGGOTT,-999999,-999999,0,36.4402171,-90.14774738,-90.14774738,36.44021709999999
UNKNOWN107961,AR,CLAY,GREENWAY,-999999,-999999,0,36.34189369,-90.21132968,-90.21132967999999,36.34189369
UNKNOWN107962,AR,CLEBURNE,HEBER SPRINGS,161,-999999,3,35.50522828,-92.00989188,-92.00989188,35.50522827999998
UNKNOWN107963,AR,CLEBURNE,HEBER SPRINGS,161,161,2,35.47922672,-92.03566739,-92.03566739000001,35.47922672
UNKNOWN107964,AR,CLEBURNE,QUITMAN,-999999,-999999,2,35.43534292,-92.1073649,-92.1073649,35.435342920000004
UNKNOWN107965,AR,CLEBURNE,SHIRLEY,-999999,-999999,2,35.61525257,-92.21915994,-92.21915994,35.615252569999996
UNKNOWN107966,AR,CLEBURNE,HIGDEN,-999999,-999999,2,35.5836343,-92.13400379,-92.13400379,35.583634299999986
UNKNOWN107967,AR,COLUMBIA,WALDO,115,115,1,33.38400774,-93.28893959,-93.28893959,33.38400773999999
UNKNOWN107968,AR,COLUMBIA,MAGNOLIA,115,115,2,33.28255883,-93.1986903,-93.1986903,33.28255882999999
UNKNOWN107969,AR,COLUMBIA,MAGNOLIA,115,115,2,33.25365695,-93.23309403,-93.23309403,33.25365694999999
UNKNOWN107970,AR,COLUMBIA,MC NEIL,500,115,7,33.33670494,-93.22444391,-93.22444391,33.33670493999998
UNKNOWN107971,AR,COLUMBIA,MAGNOLIA,115,115,2,33.26794518,-93.30505569,-93.30505568999999,33.26794518
UNKNOWN107972,AR,COLUMBIA,MAGNOLIA,115,115,2,33.28399951,-93.25625282,-93.25625282,33.28399950999999
UNKNOWN107973,AR,COLUMBIA,MAGNOLIA,115,115,1,33.17681322,-93.21631071,-93.21631071,33.17681322
UNKNOWN107974,AR,COLUMBIA,EMERSON,115,115,2,33.06898582,-93.1785979,-93.1785979,33.068985819999995
UNKNOWN107975,AR,COLUMBIA,MAGNOLIA,115,115,2,33.20849337,-93.22610458,-93.22610458,33.20849336999999
UNKNOWN107976,AR,CONWAY,MORRILTON,161,-999999,6,35.0877168,-92.78048795,-92.78048795,35.087716799999995
UNKNOWN107977,AR,CONWAY,MORRILTON,161,161,4,35.1759966,-92.70514605,-92.70514605,35.1759966
UNKNOWN107978,AR,CONWAY,MORRILTON,161,161,2,35.15401642,-92.75859158,-92.75859158,35.15401642
UNKNOWN107979,AR,CONWAY,MORRILTON,161,-999999,3,35.12874307,-92.79156602,-92.79156601999999,35.12874306999999
UNKNOWN107980,AR,CRAIGHEAD,LAKE CITY,-999999,-999999,0,35.87632348,-90.36739248,-90.36739248,35.87632347999999
UNKNOWN107981,AR,CRAIGHEAD,LAKE CITY,69,69,2,35.75724013,-90.46570271,-90.46570271,35.75724012999999
UNKNOWN107982,AR,CRAIGHEAD,CASH,161,161,2,35.79307684,-90.91199694,-90.91199694,35.79307683999999
UNKNOWN107983,AR,CRAIGHEAD,JONESBORO,69,69,2,35.86573448,-90.61313385,-90.61313385,35.86573447999999
UNKNOWN107984,AR,CRAIGHEAD,JONESBORO,69,69,2,35.8463467,-90.74782496,-90.74782495999999,35.846346700000005
UNKNOWN107985,AR,CRAWFORD,MOUNTAINBURG,-999999,-999999,1,35.59584353,-94.14670067,-94.14670067000002,35.59584352999998
UNKNOWN107988,AR,CRAWFORD,VAN BUREN,161,161,4,35.47339317,-94.33440115,-94.33440115,35.47339317
UNKNOWN107989,AR,CRAWFORD,VAN BUREN,161,161,1,35.42035365,-94.28759182,-94.28759182,35.42035365
UNKNOWN107990,AR,CRAWFORD,VAN BUREN,69,69,2,35.45681473,-94.40160013,-94.40160013,35.45681473
UNKNOWN107991,AR,CRITTENDEN,MARION,161,161,2,35.20596389,-90.22869248,-90.22869247999999,35.20596388999999
WEST MEMPHIS GATEWAY,AR,CRITTENDEN,WEST MEMPHIS,161,161,1,35.14798985,-90.12787005,-90.12787004999998,35.147989849999995
UNKNOWN107994,AR,CRITTENDEN,WEST MEMPHIS,161,161,5,35.17523251,-90.22142154,-90.22142154,35.17523251
LEHI,AR,CRITTENDEN,WEST MEMPHIS,161,161,4,35.14804074,-90.22062595,-90.22062595,35.14804073999999
UNKNOWN107997,AR,CRITTENDEN,EARLE,161,161,2,35.37539969,-90.49771919,-90.49771918999998,35.37539969
UNKNOWN107998,AR,CRITTENDEN,EARLE,69,69,2,35.30922641,-90.45349389,-90.45349389000002,35.309226409999994
UNKNOWN107999,AR,CROSS,PARKIN,69,69,2,35.29053912,-90.57640326,-90.57640326000002,35.29053912
UNKNOWN108000,AR,CROSS,WYNNE,69,69,3,35.26850075,-90.74577794,-90.74577793999998,35.268500749999994
UNKNOWN108001,AR,CROSS,WYNNE,69,69,1,35.19625055,-90.72486911,-90.72486911,35.196250549999995
CHERRY VALLEY,AR,CROSS,CHERRY VALLEY,161,161,2,35.38741589,-90.77102287,-90.77102287,35.38741588999999
UNKNOWN108003,AR,CROSS,WYNNE,69,69,3,35.25374314,-90.83671888,-90.83671888,35.25374313999999
UNKNOWN108004,AR,CROSS,MCCRORY,69,69,2,35.2507173,-91.02892395,-91.02892394999999,35.250717299999984
UNKNOWN108005,AR,CROSS,WYNNE,69,69,1,35.33569165,-90.73605673,-90.73605673,35.33569165
UNKNOWN108006,AR,DALLAS,CARTHAGE,115,115,2,34.07509509,-92.57166566,-92.57166566,34.07509508999999
WINCHESTER,AR,DESHA,TILLAR,115,115,1,33.81205276,-91.34024482,-91.34024482,33.81205275999999
UNKNOWN108008,AR,DESHA,WATSON,115,115,2,33.91986531,-91.33701817,-91.33701817,33.919865310000006
UNKNOWN108009,AR,DREW,MONTICELLO,115,115,2,33.60519082,-91.79513626,-91.79513626,33.60519081999999
MONTICELLO EAST,AR,DREW,MONTICELLO,115,115,3,33.62704058,-91.76770694,-91.76770694,33.62704057999999
UNKNOWN108011,AR,DREW,WILMAR,115,115,2,33.61378897,-91.92566231,-91.92566231,33.61378897000001
UNKNOWN108012,AR,FAULKNER,CONWAY,161,115,3,35.08507321,-92.49160167,-92.49160167,35.08507320999999
UNKNOWN108013,AR,FAULKNER,VILONIA,161,161,1,35.1241112,-92.28057817,-92.28057817,35.124111199999994
UNKNOWN108014,AR,FAULKNER,QUITMAN,161,161,4,35.3302591,-92.26747573,-92.26747573,35.33025909999999
UNKNOWN108016,AR,FAULKNER,CONWAY,161,161,2,35.11039467,-92.51732412,-92.51732411999998,35.11039466999999
UNKNOWN108017,AR,FAULKNER,CONWAY,115,115,2,34.98905021,-92.42124788,-92.42124788,34.98905021
UNKNOWN108018,AR,FRANKLIN,CHARLESTON,-999999,-999999,0,35.30458974,-94.0376221,-94.0376221,35.30458973999999
UNKNOWN108019,AR,FRANKLIN,CHARLESTON,161,161,1,35.34646219,-93.96995062,-93.96995062,35.34646219
UNKNOWN108020,AR,FRANKLIN,OZARK,161,161,1,35.45128112,-93.77922243,-93.77922242999999,35.451281119999976
UNKNOWN108021,AR,FRANKLIN,OZARK,161,161,1,35.40968399,-93.77462031,-93.77462031,35.40968398999999
UNKNOWN108022,AR,FRANKLIN,OZARK,69,69,1,35.39784021,-93.84458411,-93.84458411,35.39784021
UNKNOWN108023,AR,FRANKLIN,OZARK,69,69,1,35.39870287,-93.84558315,-93.84558315,35.39870287
OZARK,AR,FRANKLIN,OZARK,161,-999999,4,35.46934817,-93.81762036,-93.81762036,35.469348169999996
UNKNOWN108025,AR,FULTON,MAMMOTH SPRING,161,161,2,36.38866542,-91.5185838,-91.51858379999999,36.38866542
UNKNOWN108026,AR,FULTON,MAMMOTH SPRING,-999999,-999999,0,36.43554902,-91.53268637,-91.53268637,36.43554901999999
SALEM,AR,FULTON,SALEM,69,69,2,36.36783175,-91.82672417,-91.82672417,36.36783175
UNKNOWN108028,AR,FULTON,VIOLA,69,69,3,36.39351374,-92.00542197,-92.00542197,36.393513739999975
UNKNOWN108029,AR,GARLAND,HOT SPRINGS VILLAGE,115,115,4,34.61945734,-93.00321065,-93.00321065,34.61945733999999
UNKNOWN108030,AR,GARLAND,HOT SPRINGS VILLAGE,115,115,2,34.66006572,-93.01386132,-93.01386132,34.66006572
UNKNOWN108031,AR,GARLAND,HOT SPRINGS VILLAGE,115,-999999,2,34.62277288,-93.05450626,-93.05450626,34.62277287999999
UNKNOWN108032,AR,GARLAND,HOT SPRINGS NATIONAL PARK,115,115,2,34.46083887,-92.92911088,-92.92911087999998,34.460838869999996
UNKNOWN108033,AR,GARLAND,HOT SPRINGS NATIONAL PARK,115,115,2,34.46415793,-92.94752253,-92.94752253,34.46415793
UNKNOWN108034,AR,GARLAND,HOT SPRINGS NATIONAL PARK,115,115,1,34.46339791,-92.96465043,-92.96465043,34.46339790999999
UNKNOWN108035,AR,GARLAND,ROYAL,-999999,-999999,2,34.51355323,-93.21049854,-93.21049854,34.513553229999985
UNKNOWN108036,AR,GARLAND,HOT SPRINGS NATIONAL PARK,-999999,-999999,2,34.45104403,-93.17764158,-93.17764158,34.451044029999984
UNKNOWN108037,AR,GARLAND,MOUNTAIN PINE,-999999,-999999,2,34.57828649,-93.16906845,-93.16906845,34.57828649000001
UNKNOWN108038,AR,GARLAND,HOT SPRINGS NATIONAL PARK,-999999,-999999,3,34.54138699,-93.16344869,-93.16344869,34.54138698999999
UNKNOWN108039,AR,GRANT,GRAPEVINE,115,115,2,34.14193891,-92.31639708,-92.31639708,34.141938909999986
UNKNOWN108041,AR,GRANT,SHERIDAN,115,115,2,34.26700233,-92.41680499,-92.41680499,34.26700232999999
POYEN,AR,GRANT,POYEN,115,115,2,34.32310988,-92.63093446,-92.63093446000002,34.32310988
UNKNOWN108043,AR,GREENE,BONO,-999999,-999999,2,36.06801475,-90.74675811,-90.74675811,36.06801475
UNKNOWN108044,AR,GREENE,PARAGOULD,-999999,-999999,0,36.06839392,-90.6727195,-90.6727195,36.06839392
UNKNOWN108045,AR,HEMPSTEAD,HOPE,115,115,2,33.73151578,-93.62168842,-93.62168842,33.731515779999995
UNKNOWN108046,AR,HEMPSTEAD,FULTON,115,115,2,33.6567981,-93.7776446,-93.77764460000002,33.656798099999996
UNKNOWN108047,AR,HEMPSTEAD,WASHINGTON,69,69,2,33.75082797,-93.71512498,-93.71512498,33.75082796999999
UNKNOWN108048,AR,HEMPSTEAD,HOPE,115,115,1,33.72545773,-93.63947604,-93.63947604,33.725457729999995
UNKNOWN108049,AR,HEMPSTEAD,FULTON,115,115,3,33.62182063,-93.73626533,-93.73626533,33.62182063
UNKNOWN108050,AR,HOT SPRING,MALVERN,115,115,8,34.44067141,-92.88933954,-92.88933954000001,34.44067140999999
UNKNOWN108051,AR,HOT SPRING,MALVERN,115,-999999,2,34.42866683,-92.89257928,-92.89257928,34.42866683
UNKNOWN108052,AR,HOT SPRING,MALVERN,115,115,2,34.43140931,-92.81277853,-92.81277852999999,34.43140930999999
UNKNOWN108053,AR,HOT SPRING,MALVERN,115,115,1,34.38380826,-92.80078772,-92.80078771999999,34.38380825999999
UNKNOWN108054,AR,HOT SPRING,MALVERN,115,115,2,34.3429122,-92.83125938,-92.83125937999999,34.3429122
UNKNOWN108055,AR,HOT SPRING,BISMARCK,115,115,2,34.31403407,-93.1686965,-93.1686965,34.31403407
UNKNOWN108057,AR,HOWARD,NASHVILLE,138,138,2,33.92140397,-93.86098221,-93.86098221,33.92140397
UNKNOWN108058,AR,HOWARD,MINERAL SPRINGS,-999999,-999999,0,33.81880233,-93.89699583,-93.89699583,33.81880232999999
KENNETH FORD,AR,HOWARD,NASHVILLE,-999999,-999999,1,33.94929126,-93.93807189,-93.93807189,33.949291259999995
CEDAR GROVE,AR,INDEPENDENCE,FLORAL,161,161,2,35.57827164,-91.7285896,-91.7285896,35.57827163999999
UNKNOWN108062,AR,INDEPENDENCE,BATESVILLE,161,161,3,35.8918459,-91.7314349,-91.7314349,35.89184589999999
UNKNOWN108063,AR,INDEPENDENCE,BATESVILLE,161,161,2,35.69899323,-91.6488707,-91.6488707,35.698993230000006
UNKNOWN108064,AR,IZARD,FRANKLIN,69,69,2,36.18105043,-91.72649212,-91.72649212,36.18105042999999
UNKNOWN108065,AR,IZARD,HORSESHOE BEND,69,69,2,36.18666314,-91.76656933,-91.76656933,36.18666313999999
UNKNOWN108066,AR,IZARD,PINEVILLE,161,161,2,36.18479562,-92.12514052,-92.12514052,36.18479562
UNKNOWN108067,AR,IZARD,VIOLET HILL,69,69,2,36.14751047,-91.91468566,-91.91468566,36.14751046999999
UNKNOWN108068,AR,IZARD,MELBOURNE,161,161,2,36.05913922,-91.87624756,-91.87624756,36.05913922
UNKNOWN108069,AR,IZARD,MELBOURNE,161,161,3,36.01781597,-91.82239692,-91.82239692,36.01781597
UNKNOWN108070,AR,IZARD,SALEM,161,69,4,36.25132799,-91.7569266,-91.7569266,36.25132798999999
UNKNOWN108071,AR,JACKSON,TUCKERMAN,161,161,2,35.76963733,-91.17524413,-91.17524412999998,35.76963732999999
UNKNOWN108072,AR,JACKSON,NEWPORT,161,161,2,35.47535979,-91.23354515,-91.23354515,35.47535979
UNKNOWN108073,AR,JEFFERSON,WABBASEKA,115,115,2,34.38555815,-91.7951926,-91.7951926,34.38555815000001
UNKNOWN108074,AR,JEFFERSON,ALTHEIMER,115,115,1,34.30991877,-91.83331238,-91.83331238,34.309918769999996
UNKNOWN108075,AR,JEFFERSON,SHERRILL,115,115,2,34.38457718,-91.99210433,-91.99210433,34.384577179999994
UNKNOWN108076,AR,JEFFERSON,WHITE HALL,115,115,2,34.26599436,-92.02205698,-92.02205698,34.26599436
UNKNOWN108077,AR,JEFFERSON,WHITE HALL,115,115,2,34.29920698,-92.09577258,-92.09577258,34.29920697999999
UNKNOWN108078,AR,JEFFERSON,REDFIELD,115,115,2,34.48333704,-92.20711893,-92.20711893,34.483337039999995
UNKNOWN108079,AR,JOHNSON,CLARKSVILLE,161,-999999,4,35.5217268,-93.44669792,-93.44669792,35.52172680000001
UNKNOWN108081,AR,JOHNSON,LAMAR,69,69,3,35.48080314,-93.32146597,-93.32146596999999,35.48080313999998
UNKNOWN108083,AR,LAFAYETTE,BUCKNER,115,115,2,33.35990776,-93.46344013,-93.46344013,33.35990775999999
UNKNOWN108084,AR,LAFAYETTE,BUCKNER,115,-999999,6,33.35908843,-93.46423792,-93.46423792,33.359088429999986
LEWISVILLE,AR,LAFAYETTE,LEWISVILLE,115,69,3,33.358027,-93.59903426,-93.59903426,33.358027
CHARLES G. WHALEY,AR,LAFAYETTE,TAYLOR,69,69,1,33.15577422,-93.51400605,-93.51400604999999,33.155774220000005
F.M. COCHRAN,AR,LAFAYETTE,BRADLEY,69,69,3,33.10336605,-93.65292316,-93.65292316,33.103366049999984
UNKNOWN108088,AR,LAWRENCE,WALNUT RIDGE,-999999,-999999,0,36.12594484,-90.92940702,-90.92940702,36.125944839999995
UNKNOWN108089,AR,LAWRENCE,BLACK ROCK,161,-999999,3,36.13824104,-91.15636539,-91.15636538999999,36.138241040000004
UNKNOWN108090,AR,LAWRENCE,BLACK ROCK,-999999,-999999,1,36.13870673,-91.15892997,-91.15892997,36.13870673
WALNUT RIDGE 14.4KV,AR,LAWRENCE,WALNUT RIDGE,-999999,-999999,0,36.07607248,-90.99829621,-90.99829621,36.07607248
UNKNOWN107772,AR,PULASKI,LITTLE ROCK,115,115,2,34.71386586,-92.256886,-92.256886,34.71386586
UNKNOWN107773,AR,PULASKI,LITTLE ROCK,115,115,2,34.73585117,-92.35224905,-92.35224905000001,34.73585116999999
UNKNOWN107774,AR,PULASKI,LITTLE ROCK,115,115,2,34.71768728,-92.35175979,-92.35175979000002,34.71768727999999
UNKNOWN107775,AR,PULASKI,LITTLE ROCK,115,115,2,34.74408724,-92.30611403,-92.30611402999999,34.74408723999999
UNKNOWN107776,AR,PULASKI,LITTLE ROCK,115,115,2,34.72608216,-92.27781487,-92.27781487,34.72608215999999
UNKNOWN107777,AR,PULASKI,LITTLE ROCK,115,115,4,34.75051426,-92.27669192,-92.27669192,34.75051426
UNKNOWN107778,AR,PULASKI,LITTLE ROCK,115,115,2,34.66828504,-92.36179067,-92.36179067,34.66828504
UNKNOWN107779,AR,PULASKI,LITTLE ROCK,115,115,2,34.61370864,-92.24012039,-92.24012039,34.61370863999999
UNKNOWN107780,AR,PULASKI,LITTLE ROCK,115,115,2,34.63345024,-92.27317626,-92.27317626000001,34.63345024000001
GRAVEL RIDGE,AR,PULASKI,SHERWOOD,161,161,2,34.88121765,-92.22031575,-92.22031575,34.881217649999996
GRAVEL RIDGE SOUTH,AR,PULASKI,JACKSONVILLE,161,115,5,34.85875609,-92.19581654,-92.19581653999998,34.858756089999986
UNKNOWN107783,AR,PULASKI,NORTH LITTLE ROCK,115,115,7,34.75463806,-92.19788784,-92.19788784,34.75463806
UNKNOWN107784,AR,PULASKI,NORTH LITTLE ROCK,115,115,2,34.80055344,-92.1887859,-92.1887859,34.80055344
UNKNOWN107785,AR,RANDOLPH,POCAHONTAS,-999999,-999999,1,36.35723535,-91.09466807,-91.09466806999998,36.35723535000001
UNKNOWN107786,AR,RANDOLPH,POCAHONTAS,161,-999999,3,36.2493282,-91.0545698,-91.05456980000001,36.2493282
UNKNOWN107787,AR,RANDOLPH,POCAHONTAS,161,161,4,36.24990278,-91.0529982,-91.0529982,36.24990278
UNKNOWN107788,AR,RANDOLPH,POCAHONTAS,161,161,2,36.28561223,-90.93893228,-90.93893228,36.28561222999999
UNKNOWN107789,AR,RANDOLPH,POCAHONTAS,161,161,2,36.26972658,-91.04255391,-91.04255391000001,36.26972657999999
UNKNOWN107790,AR,SALINE,BENTON,115,115,2,34.62618182,-92.76640534,-92.76640534,34.62618181999999
UNKNOWN107791,AR,SALINE,HASKELL,115,115,2,34.50098475,-92.64775816,-92.64775816000001,34.50098475
BAUXITE,AR,SALINE,BAUXITE,115,115,3,34.56715072,-92.50525671,-92.50525671,34.56715072
UNKNOWN107793,AR,SALINE,BENTON,115,115,2,34.59555048,-92.57982692,-92.57982692,34.59555048
UNKNOWN107794,AR,SALINE,BRYANT,115,115,2,34.59234773,-92.48408336,-92.48408335999999,34.59234773000001
UNKNOWN107795,AR,SALINE,BRYANT,115,115,2,34.65064571,-92.49757014,-92.49757014,34.65064571
UNKNOWN107796,AR,SALINE,MABELVALE,115,115,2,34.58358953,-92.36911127,-92.36911126999999,34.58358952999999
UNKNOWN107797,AR,SALINE,BENTON,115,115,2,34.63911757,-92.56148058,-92.56148058,34.63911757
UNKNOWN107798,AR,SCOTT,MANSFIELD,-999999,-999999,0,35.07735764,-94.19538915,-94.19538915,35.077357639999995
UNKNOWN107800,AR,SEBASTIAN,FORT SMITH,161,161,1,35.28154716,-94.37863419,-94.37863419,35.28154715999999
UNKNOWN107801,AR,SEBASTIAN,FORT SMITH,161,161,2,35.23821883,-94.39426201,-94.39426201,35.23821883
UNKNOWN107802,AR,SEBASTIAN,HACKETT,161,161,2,35.1950034,-94.3612609,-94.3612609,35.1950034
UNKNOWN107803,AR,SEBASTIAN,HACKETT,161,161,2,35.20953086,-94.37245663,-94.37245663,35.20953086000001
UNKNOWN107804,AR,SEBASTIAN,MANSFIELD,69,69,1,35.02799426,-94.32646939,-94.32646938999999,35.02799426000001
UNKNOWN107805,AR,SEBASTIAN,HARTFORD,69,69,3,35.0725641,-94.34359389,-94.34359389,35.07256409999999
UNKNOWN107806,AR,SEBASTIAN,GREENWOOD,69,69,2,35.16297269,-94.21987811,-94.21987811,35.162972690000004
UNKNOWN107807,AR,SEBASTIAN,MANSFIELD,69,69,2,35.10310092,-94.21740034,-94.21740034,35.10310092
UNKNOWN107810,AR,SEBASTIAN,HUNTINGTON,161,69,5,35.08523074,-94.26769678,-94.26769677999998,35.08523074
NORTH HUNTINGTON,AR,SEBASTIAN,HUNTINGTON,69,69,2,35.08266582,-94.27018628,-94.27018628,35.08266582
UNKNOWN107815,AR,SEBASTIAN,FORT SMITH,-999999,-999999,0,35.40061149,-94.41433585,-94.41433585,35.40061149
LOCKENSBURG,AR,SEVIER,LOCKESBURG,138,138,2,33.89277637,-94.1507985,-94.1507985,33.89277636999999
UNKNOWN107817,AR,SEVIER,LOCKESBURG,69,69,1,33.98994108,-94.17857219,-94.17857219,33.98994108
UNKNOWN107818,AR,SEVIER,DE QUEEN,69,-999999,4,34.0281642,-94.34350219,-94.34350219,34.02816419999999
DE QUEEN,AR,SEVIER,DE QUEEN,69,69,1,33.99814477,-94.38396137,-94.38396137,33.99814477
UNKNOWN107820,AR,SHARP,CAVE CITY,161,161,1,35.94284273,-91.57778608,-91.57778608,35.942842729999995
UNKNOWN107821,AR,SHARP,WILLIFORD,161,161,2,36.27961265,-91.38402067,-91.38402067000001,36.27961264999999
UNKNOWN107822,AR,ST. FRANCIS,COLT,69,69,1,35.09603246,-90.99860327,-90.99860326999999,35.096032459999996
UNKNOWN107823,AR,ST. FRANCIS,PALESTINE,69,69,2,34.96934851,-90.89549973,-90.89549973,34.969348509999996
UNKNOWN107824,AR,ST. FRANCIS,PALESTINE,161,69,5,34.96827787,-90.89496996,-90.89496996,34.96827787
UNKNOWN107825,AR,ST. FRANCIS,WIDENER,69,69,1,35.01656124,-90.61539669,-90.61539669,35.016561239999994
UNKNOWN107826,AR,ST. FRANCIS,HUGHES,161,161,2,34.9672861,-90.45173769,-90.45173769,34.9672861
UNKNOWN107827,AR,UNION,MAGNOLIA,115,115,2,33.18960096,-92.96614501,-92.96614500999999,33.189600959999986
UNKNOWN107828,AR,UNION,SMACKOVER,115,115,2,33.35810316,-92.73127172,-92.73127172,33.35810316
UNKNOWN107829,AR,UNION,EL DORADO,115,115,1,33.36200547,-92.64829516,-92.64829516,33.36200546999999
UNKNOWN107830,AR,UNION,EL DORADO,115,115,3,33.26016951,-92.64552201,-92.64552200999998,33.26016951
UNKNOWN107831,AR,UNION,EL DORADO,115,115,2,33.26361417,-92.68793017,-92.68793016999999,33.26361417
EL DORADA JACKSON,AR,UNION,EL DORADO,-999999,-999999,2,33.20714081,-92.66068207,-92.66068207,33.207140809999984
UNKNOWN107833,AR,UNION,EL DORADO,115,115,2,33.20655161,-92.69622424,-92.69622424,33.20655160999999
UNKNOWN107834,AR,UNION,EL DORADO,-999999,-999999,2,33.20177905,-92.67388408,-92.67388408,33.201779049999985
UNKNOWN107835,AR,UNION,EL DORADO,115,-999999,2,33.18651065,-92.70923259,-92.70923259000001,33.186510649999995
UNKNOWN107836,AR,UNION,EL DORADO,115,115,4,33.20350336,-92.73706083,-92.73706082999999,33.203503359999985
UNKNOWN107837,AR,UNION,EL DORADO,115,115,2,33.16399384,-92.74116368,-92.74116368,33.163993839999996
UNKNOWN107838,AR,UNION,EL DORADO,115,115,1,33.10980772,-92.66728504,-92.66728504,33.10980772
UNKNOWN107839,AR,UNION,JUNCTION CITY,115,115,2,33.02717303,-92.73687431,-92.73687431,33.02717302999999
UNKNOWN107841,AR,UNION,EL DORADO,115,-999999,3,33.20983651,-92.61426891,-92.61426891,33.209836509999995
UNKNOWN107842,AR,UNION,EL DORADO,115,115,1,33.11376294,-92.60696601,-92.60696601,33.11376294
UNKNOWN107843,AR,UNION,STRONG,115,115,1,33.12745793,-92.40274672,-92.40274672,33.12745792999999
UNKNOWN107844,AR,UNION,HUTTIG,115,115,1,33.04360179,-92.20265588,-92.20265588,33.04360178999999
UNKNOWN107845,AR,VAN BUREN,CLINTON,161,-999999,4,35.61475422,-92.4922376,-92.4922376,35.614754219999995
UNKNOWN107846,AR,VAN BUREN,CLINTON,-999999,-999999,0,35.53335062,-92.44351088,-92.44351088,35.53335061999999
UNKNOWN107847,AR,VAN BUREN,BEE BRANCH,161,161,2,35.45444667,-92.38584598,-92.38584598,35.454446669999996
UNKNOWN107848,AR,VAN BUREN,SHIRLEY,-999999,-999999,2,35.64818074,-92.3284581,-92.3284581,35.64818074
UNKNOWN107849,AR,VAN BUREN,FAIRFIELD BAY,-999999,-999999,2,35.58964957,-92.30371647,-92.30371647,35.58964957
UNKNOWN107850,AR,WASHINGTON,FAYETTEVILLE,69,69,3,35.97399388,-94.01369905,-94.01369905000001,35.973993879999995
UNKNOWN107851,AR,WASHINGTON,SPRINGDALE,-999999,-999999,1,36.1921658,-94.12663249,-94.12663249,36.19216579999999
UNKNOWN107852,AR,WASHINGTON,SPRINGDALE,69,69,2,36.20840787,-94.11928132,-94.11928132,36.20840787
UNKNOWN107853,AR,WASHINGTON,SPRINGDALE,161,161,2,36.16430853,-94.13664282,-94.13664281999999,36.16430852999999
UNKNOWN107854,AR,WASHINGTON,SPRINGDALE,69,69,2,36.1334142,-94.09477561,-94.09477561,36.13341419999999
EAST FAYETTEVILLE,AR,WASHINGTON,FAYETTEVILLE,161,69,6,36.12561135,-94.11214389,-94.11214389,36.12561135000001
UNKNOWN107856,AR,WASHINGTON,FAYETTEVILLE,69,69,2,36.12762764,-94.13553153,-94.13553152999998,36.12762764
UNKNOWN107857,AR,WASHINGTON,WINSLOW,69,-999999,2,35.86042174,-94.05816322,-94.05816322,35.86042174000001
UNKNOWN107858,AR,WASHINGTON,SPRINGDALE,161,-999999,9,36.1961588,-94.16229547,-94.16229546999999,36.19615879999999
UNKNOWN107859,AR,WASHINGTON,SPRINGDALE,69,69,3,36.17639976,-94.19198311,-94.19198311,36.17639976000001
UNKNOWN107860,AR,WASHINGTON,SPRINGDALE,69,69,3,36.13975968,-94.1929582,-94.1929582,36.13975967999999
UNKNOWN107861,AR,WASHINGTON,FAYETTEVILLE,69,69,2,36.07936735,-94.2295393,-94.2295393,36.07936735
UNKNOWN107863,AR,WASHINGTON,FAYETTEVILLE,161,161,2,36.04246287,-94.14073609,-94.14073609,36.04246287
GREENLAND,AR,WASHINGTON,FAYETTEVILLE,69,69,3,35.99673545,-94.20269046,-94.20269045999999,35.996735449999996
UNKNOWN107865,AR,WASHINGTON,FAYETTEVILLE,69,69,2,35.99513759,-94.20384154,-94.20384154000001,35.99513759
UNKNOWN107866,AR,WASHINGTON,FARMINGTON,69,69,2,36.02948614,-94.28144157,-94.28144157,36.02948614
UNKNOWN107867,AR,WASHINGTON,PRAIRIE GROVE,69,69,2,35.96568905,-94.34020861,-94.34020861,35.96568904999999
UNKNOWN107868,AR,WASHINGTON,LINCOLN,69,69,1,35.95951196,-94.43106038,-94.43106038,35.95951195999999
UNKNOWN107869,AR,WHITE,ROSE BUD,-999999,-999999,2,35.32730116,-92.02713545,-92.02713545,35.32730115999998
UNKNOWN107870,AR,WHITE,BEEBE,115,115,2,35.09397806,-91.87209676,-91.87209676,35.09397806
UNKNOWN107871,AR,WHITE,GRIFFITHVILLE,115,115,2,35.12086134,-91.63241027,-91.63241027,35.12086134
UNKNOWN107872,AR,WHITE,KENSETT,161,115,4,35.2397536,-91.68714216,-91.68714216,35.23975359999999
UNKNOWN107873,AR,WHITE,BALD KNOB,161,-999999,3,35.34308628,-91.53914729,-91.53914728999999,35.343086279999994
UNKNOWN107874,AR,WOODRUFF,MC CRORY,69,69,2,35.27231724,-91.17281432,-91.17281432,35.27231724000001
UNKNOWN107875,AR,WOODRUFF,AUGUSTA,161,69,5,35.25951182,-91.3628177,-91.3628177,35.25951182
UNKNOWN107876,AR,WOODRUFF,COTTON PLANT,69,69,2,35.00496573,-91.27455521,-91.27455521,35.004965729999995
UNKNOWN107877,AR,WOODRUFF,COTTON PLANT,115,115,2,34.99798121,-91.25653395,-91.25653394999999,34.99798121
OLA,AR,YELL,OLA,115,115,2,35.01833303,-93.25743336,-93.25743336,35.018333029999994
DEWITT,AR,ARKANSAS,DE WITT,115,115,2,34.29909187,-91.38796767,-91.38796767,34.29909186999999
UNKNOWN108997,AL,HOUSTON,COLUMBIA,500,-999999,7,31.2240507,-85.11620764,-85.11620764,31.224050699999985
UNKNOWN108998,AL,HOUSTON,GORDON,115,115,1,31.05577155,-85.18920265,-85.18920265,31.05577155
UNKNOWN108999,AL,HOUSTON,PANSEY,230,-999999,4,31.0871379,-85.19684777,-85.19684777,31.087137899999995
UNKNOWN109001,AL,HOUSTON,DOTHAN,115,-999999,8,31.26002022,-85.40108322,-85.40108322000002,31.26002022
UNKNOWN109002,AL,HOUSTON,WEBB,115,115,1,31.25532882,-85.3130533,-85.3130533,31.25532882
UNKNOWN109003,AL,PIKE,TROY,115,115,1,31.97429607,-85.98967282,-85.98967282,31.974296069999998
UNKNOWN109004,AL,HENRY,ABBEVILLE,115,-999999,5,31.62424966,-85.2160571,-85.2160571,31.624249659999993
UNKNOWN109005,AL,HENRY,SHORTERVILLE,115,115,5,31.62317209,-85.06526476,-85.06526476,31.623172089999994
UNKNOWN109006,AL,BARBOUR,CLIO,115,115,5,31.70456779,-85.59274085,-85.59274085,31.70456778999999
UNKNOWN109007,AL,HENRY,ABBEVILLE,115,115,3,31.49219668,-85.28459584,-85.28459584,31.492196680000003
UNKNOWN109008,AL,HENRY,MIDLAND CITY,115,115,2,31.40429297,-85.41507945,-85.41507945,31.40429297
UNKNOWN109009,AL,DALE,NEWTON,115,115,1,31.31578501,-85.58071576,-85.58071576,31.315785009999992
UNKNOWN109010,AL,DALE,OZARK,115,-999999,3,31.44390465,-85.60056641,-85.60056640999998,31.443904649999993
UNKNOWN109011,AL,DALE,DALEVILLE,115,-999999,4,31.23431976,-85.74126594,-85.74126594,31.234319759999998
UNKNOWN109012,AL,COVINGTON,OPP,115,115,1,31.29313368,-86.27507251,-86.27507251,31.293133679999993
UNKNOWN109013,AL,COVINGTON,OPP,115,-999999,5,31.28635642,-86.27457219,-86.27457219,31.28635642
UNKNOWN109014,AL,DALE,MIDLAND CITY,115,115,3,31.30591007,-85.59437183,-85.59437182999999,31.305910069999996
UNKNOWN109015,AL,COFFEE,KINSTON,115,115,1,31.23970414,-86.18567217,-86.18567217,31.239704139999994
UNKNOWN109017,AL,COVINGTON,ANDALUSIA,115,115,1,31.05032983,-86.58233804,-86.58233804,31.05032983
UNKNOWN109018,AL,GENEVA,WESTVILLE,230,115,4,30.99406916,-86.05984694,-86.05984694000001,30.994069160000006
UNKNOWN109019,AL,GENEVA,SAMSON,230,-999999,3,31.02068174,-86.01354277,-86.01354277000002,31.02068174
UNKNOWN109020,AL,GENEVA,SAMSON,115,115,1,31.11613387,-86.04925669,-86.04925669,31.116133869999995
UNKNOWN109021,AL,GENEVA,SAMSON,115,115,1,31.11246012,-86.10834205,-86.10834204999999,31.11246011999999
SLOCOMB,AL,GENEVA,SLOCOMB,230,-999999,3,31.1124636,-85.57959131,-85.57959131,31.112463600000005
UNKNOWN109023,AL,GENEVA,DOTHAN,115,115,1,31.19216739,-85.52603133,-85.52603133,31.192167389999994
UNKNOWN109926,MS,MARION,COLUMBIA,115,115,2,31.23448919,-89.82097877,-89.82097876999998,31.234489189999994
UNKNOWN109927,MS,LAMAR,LUMBERTON,115,-999999,4,31.0011787,-89.43813838,-89.43813838,31.00117869999999
UNKNOWN109928,MS,MARION,FOXWORTH,-999999,-999999,1,31.12559736,-89.83536458,-89.83536458,31.12559735999999
UNKNOWN109929,MS,LAMAR,LUMBERTON,-999999,-999999,1,31.08108893,-89.59694902,-89.59694902,31.081088929999993
UNKNOWN109930,MS,LAMAR,LUMBERTON,115,-999999,6,31.06005918,-89.41587176,-89.41587176,31.06005918
UNKNOWN109931,MS,LAMAR,LUMBERTON,-999999,-999999,1,31.05856488,-89.41621916,-89.41621916,31.058564879999988
UNKNOWN109932,MS,LAMAR,SUMRALL,115,115,1,31.25969526,-89.5817827,-89.58178270000002,31.259695259999994
UNKNOWN109933,MS,LAMAR,PURVIS,115,115,2,31.27084934,-89.41515821,-89.41515821,31.270849339999998
UNKNOWN109935,MS,LAMAR,PURVIS,161,161,5,31.21998272,-89.39401805,-89.39401805,31.219982719999997
UNKNOWN109936,MS,FORREST,PURVIS,230,161,6,31.19419957,-89.33780137,-89.33780137,31.194199569999995
UNKNOWN109937,MS,FORREST,HATTIESBURG,-999999,-999999,4,31.41123759,-89.39961088,-89.39961088000001,31.411237589999992
UNKNOWN109938,MS,LAMAR,SUMRALL,-999999,-999999,1,31.42018588,-89.49709898,-89.49709898,31.420185879999988
UNKNOWN109939,MS,FORREST,HATTIESBURG,-999999,-999999,1,31.38404644,-89.36921795,-89.36921795,31.384046439999985
UNKNOWN109940,MS,LAMAR,HATTIESBURG,-999999,-999999,2,31.32816142,-89.37280508,-89.37280508,31.328161419999997
UNKNOWN109941,MS,FORREST,HATTIESBURG,115,115,2,31.33526442,-89.33609553,-89.33609553,31.335264420000005
UNKNOWN109954,MS,PERRY,RICHTON,69,69,2,31.24472466,-89.04688744,-89.04688744,31.24472466
UNKNOWN109955,MS,PERRY,RICHTON,69,69,1,31.23735474,-89.04058167,-89.04058167,31.23735474
UNKNOWN109956,AL,BARBOUR,EUFAULA,-999999,-999999,1,31.8180289,-85.19371268,-85.19371268000002,31.818028899999998
UNKNOWN109957,AL,RUSSELL,PITTSVIEW,115,115,1,32.16110502,-85.05578496,-85.05578496,32.161105019999994
UNKNOWN109958,AL,RUSSELL,FORT MITCHELL,115,115,1,32.26797847,-85.00047665,-85.00047665,32.26797847
UNKNOWN109959,AL,RUSSELL,FORT MITCHELL,115,-999999,4,32.31465138,-85.01751947,-85.01751946999998,32.314651379999994
UNKNOWN109960,AL,RUSSELL,PHENIX CITY,115,115,1,32.45824342,-84.99963764,-84.99963764,32.458243419999995
UNKNOWN109961,AL,RUSSELL,PHENIX CITY,115,115,1,32.47840847,-85.01160719,-85.01160719,32.47840847
UNKNOWN109962,AL,RUSSELL,PHENIX CITY,115,115,1,32.49063044,-85.03683927,-85.03683927,32.49063044
UNKNOWN109963,AL,HENRY,NEWVILLE,-999999,-999999,1,31.42055526,-85.33398971,-85.33398971,31.420555259999986
UNKNOWN109964,AL,HENRY,HEADLAND,-999999,-999999,2,31.35021732,-85.34732681,-85.34732681,31.35021732
UNKNOWN109965,AL,CHILTON,CLANTON,115,-999999,2,32.8033248,-86.62508499,-86.62508499,32.80332479999999
UNKNOWN109966,MS,LAUDERDALE,MERIDIAN,115,115,2,32.36032854,-88.69808863,-88.69808863,32.36032853999999
UNKNOWN109967,MS,HOLMES,LEXINGTON,115,115,1,33.27636528,-90.01459957,-90.01459957,33.27636528
UNKNOWN109968,MS,LEE,BELDEN,161,161,2,34.30884664,-88.79750276,-88.79750276000001,34.30884663999999
UNKNOWN109969,MS,YAZOO,BENTON,-999999,-999999,1,32.80652562,-90.23772094,-90.23772094,32.806525619999995
UNKNOWN109970,MS,YAZOO,VAUGHAN,115,-999999,3,32.88131165,-90.18989556,-90.18989556,32.881311649999994
UNKNOWN109971,MS,CLARKE,STONEWALL,115,115,2,32.12971402,-88.78571735,-88.78571735,32.12971402
UNKNOWN109972,MS,FORREST,HATTIESBURG,115,115,1,31.20457558,-89.21153999,-89.21153999,31.20457558
UNKNOWN109973,MS,CARROLL,CARROLLTON,115,115,1,33.49822349,-89.91947715,-89.91947715,33.49822349
UNKNOWN109974,MS,LAUDERDALE,MERIDIAN,115,115,2,32.32396406,-88.74588769,-88.74588769,32.323964059999994
UNKNOWN109975,MS,MADISON,FLORA,115,115,1,32.5451099,-90.29372021,-90.29372021,32.5451099
FONDREN,MS,HINDS,JACKSON,115,115,3,32.33358804,-90.17587915,-90.17587915,32.333588039999995
GALLMAN,MS,COPIAH,HAZLEHURST,115,115,2,31.92158358,-90.39427904,-90.39427904,31.921583579999997
UNKNOWN109978,MS,SIMPSON,PINOLA,115,115,2,31.8774483,-90.12168983,-90.12168983,31.877448299999994
UNKNOWN109979,MS,MONROE,HAMILTON,-999999,-999999,2,33.72928469,-88.4531952,-88.45319520000001,33.72928469
UNKNOWN109980,MS,JASPER,HEIDELBERG,115,115,1,31.89031773,-88.95219957,-88.95219956999999,31.890317730000003
UNKNOWN109981,MS,LAUDERDALE,TOOMSUBA,115,115,1,32.43918543,-88.50329277,-88.50329277000002,32.43918543
UNKNOWN109982,MS,LOWNDES,COLUMBUS,-999999,-999999,1,33.4820214,-88.43739293,-88.43739293000002,33.482021399999994
UNKNOWN109983,MS,YAZOO,BENTONIA,115,115,1,32.70799095,-90.37239618,-90.37239618,32.707990949999996
UNKNOWN109984,MS,GRENADA,GRENADA,161,161,2,33.83055579,-89.81675915,-89.81675915,33.83055579
UNKNOWN109985,MS,GRENADA,GRENADA,161,161,1,33.83629505,-89.81404657,-89.81404657,33.83629504999999
UNKNOWN109986,MS,COVINGTON,SEMINARY,115,115,2,31.58002535,-89.48519514,-89.48519514,31.580025349999996
UNKNOWN109987,MS,CARROLL,COILA,115,115,1,33.38281242,-90.04027247,-90.04027247,33.38281242
UNKNOWN109988,MS,RANKIN,PEARL,-999999,-999999,1,32.25004837,-90.0572904,-90.0572904,32.250048369999995
UNKNOWN109989,MS,LEE,SALTILLO,-999999,-999999,1,34.35040836,-88.68985582,-88.68985582,34.35040836
UNKNOWN109990,MS,CALHOUN,BRUCE,161,161,1,33.9804252,-89.35054185,-89.35054184999998,33.98042519999999
UNKNOWN109991,MS,LAUDERDALE,MERIDIAN,115,115,1,32.32805232,-88.56884351,-88.56884351,32.32805231999999
UNKNOWN109992,MS,PEARL RIVER,POPLARVILLE,115,115,3,30.83808015,-89.5275917,-89.5275917,30.838080150000003
UNKNOWN109993,MS,PEARL RIVER,POPLARVILLE,115,115,1,30.73397432,-89.49498103,-89.49498103,30.733974319999994
UNKNOWN109994,MS,PEARL RIVER,POPLARVILLE,115,115,1,30.75582633,-89.58697555,-89.58697555,30.75582633000001
UNKNOWN109995,MS,PEARL RIVER,POPLARVILLE,115,115,1,30.79383688,-89.74155011,-89.74155010999999,30.79383688
UNKNOWN109996,MS,PEARL RIVER,POPLARVILLE,115,115,1,30.79339537,-89.74370061,-89.74370061,30.793395370000002
UNKNOWN109997,MS,PEARL RIVER,CARRIERE,115,115,1,30.66527856,-89.65939859,-89.65939859000001,30.665278559999987
UNKNOWN109998,MS,PEARL RIVER,CARRIERE,115,115,1,30.62289548,-89.66173602,-89.66173602,30.62289548
UNKNOWN109999,MS,PEARL RIVER,CARRIERE,115,-999999,3,30.60089046,-89.67781728,-89.67781728,30.60089046
UNKNOWN110000,MS,PEARL RIVER,PICAYUNE,230,230,1,30.54488993,-89.59708794,-89.59708794000001,30.544889929999993
UNKNOWN110001,MS,PEARL RIVER,CARRIERE,230,230,1,30.61346999,-89.55396407,-89.55396407,30.613469990000002
UNKNOWN110002,MS,HANCOCK,PERKINSTON,-999999,-999999,1,30.59334852,-89.41223173,-89.41223172999999,30.593348519999978
UNKNOWN110003,MS,HANCOCK,KILN,-999999,-999999,1,30.46347926,-89.43655088,-89.43655087999998,30.463479260000007
UNKNOWN110004,MS,HANCOCK,KILN,230,-999999,8,30.41144138,-89.39467594,-89.39467594,30.411441379999992
UNKNOWN110005,MS,HANCOCK,PICAYUNE,115,-999999,3,30.42790643,-89.59701879,-89.59701879,30.427906430000007
UNKNOWN110006,MS,PEARL RIVER,PICAYUNE,115,115,1,30.4964661,-89.69529798,-89.69529798,30.496466099999992
UNKNOWN110007,MS,PEARL RIVER,PICAYUNE,230,-999999,3,30.54770008,-89.66787737,-89.66787736999999,30.54770007999999
UNKNOWN110008,MS,PEARL RIVER,PICAYUNE,-999999,-999999,1,30.57384676,-89.74694918,-89.74694918,30.573846760000002
UNKNOWN110009,MS,JACKSON,VANCLEAVE,115,115,1,30.54612084,-88.79612107,-88.79612107,30.546120839999997
UNKNOWN110011,MS,HARRISON,GULFPORT,230,115,13,30.44053615,-89.02735926,-89.02735926,30.440536149999993
UNKNOWN110012,MS,HARRISON,GULFPORT,115,115,1,30.47210774,-89.04377131,-89.04377131,30.47210774
UNKNOWN110013,MS,HARRISON,GULFPORT,115,115,4,30.40702176,-89.01139368,-89.01139368,30.407021759999996
UNKNOWN109697,MS,SIMPSON,MOUNT OLIVE,161,161,2,31.78160705,-89.76394757,-89.76394757000001,31.781607049999998
UNKNOWN109249,AL,SHELBY,MONTEVALLO,-999999,-999999,1,33.17822584,-86.96489455,-86.96489455,33.17822584
UNKNOWN109252,AL,CHILTON,CLANTON,115,115,4,32.96323355,-86.52061409,-86.52061409,32.96323355
UNKNOWN109253,AL,SHELBY,SHELBY,115,115,1,33.08519303,-86.54176284,-86.54176283999999,33.08519302999999
UNKNOWN109254,AL,CHILTON,CLANTON,115,115,6,32.9631458,-86.51897291,-86.51897291,32.96314579999999
UNKNOWN109255,AL,CHILTON,CLANTON,115,115,1,32.83743718,-86.47525648,-86.47525648,32.83743718
UNKNOWN109256,AL,TALLADEGA,SYLACAUGA,115,-999999,2,33.15410123,-86.30322627,-86.30322627,33.154101229999995
UNKNOWN109257,AL,TALLADEGA,SYLACAUGA,115,115,3,33.16642755,-86.28326118,-86.28326118000001,33.16642755
UNKNOWN109258,AL,TALLADEGA,SYLACAUGA,115,-999999,6,33.16764417,-86.28129794,-86.28129794,33.16764417
UNKNOWN109259,AL,TALLADEGA,CHILDERSBURG,230,-999999,5,33.33865082,-86.35967521,-86.35967521000002,33.338650819999984
UNKNOWN109260,AL,SHELBY,HARPERSVILLE,115,115,1,33.34974601,-86.40761046,-86.40761046,33.34974601
UNKNOWN109262,AL,SHELBY,PELHAM,230,115,8,33.33103746,-86.81620092,-86.81620092,33.33103746
UNKNOWN109263,AL,SHELBY,PELHAM,115,-999999,2,33.33935722,-86.79448175,-86.79448175,33.33935722
UNKNOWN109264,AL,SHELBY,HELENA,115,-999999,2,33.29090994,-86.83803995,-86.83803995,33.290909940000006
UNKNOWN109265,AL,SHELBY,PELHAM,115,115,1,33.28096369,-86.81241807,-86.81241807,33.28096368999999
UNKNOWN109267,AL,JEFFERSON,HOOVER,115,115,2,33.40133511,-86.83595312,-86.83595312,33.40133510999999
UNKNOWN109268,AL,SHELBY,HELENA,230,230,1,33.29220908,-86.88902705,-86.88902705000001,33.29220908
UNKNOWN109269,AL,SHELBY,BIRMINGHAM,-999999,-999999,1,33.36192341,-86.72837219,-86.72837219,33.361923409999996
UNKNOWN109270,AL,JEFFERSON,BIRMINGHAM,115,115,1,33.49646598,-86.85011447,-86.85011447,33.49646598
UNKNOWN109271,AL,JEFFERSON,BIRMINGHAM,115,115,2,33.48665424,-86.87913517,-86.87913517,33.48665423999999
UNKNOWN109272,AL,JEFFERSON,BIRMINGHAM,230,115,6,33.54406391,-86.86178217,-86.86178217,33.54406391
UNKNOWN109273,AL,JEFFERSON,BIRMINGHAM,115,-999999,3,33.51360711,-86.81855298,-86.81855298,33.51360711
UNKNOWN109274,AL,JEFFERSON,TRUSSVILLE,230,230,1,33.67942102,-86.53518023,-86.53518023,33.67942102
UNKNOWN109276,AL,BLOUNT,ONEONTA,230,-999999,3,33.90470957,-86.49180368,-86.49180368,33.90470957
UNKNOWN109277,AL,BLOUNT,ONEONTA,-999999,-999999,1,33.90142502,-86.36829341,-86.36829341000002,33.90142502
UNKNOWN109278,AL,ST. CLAIR,ASHVILLE,115,-999999,3,33.87583115,-86.29975862,-86.29975862,33.87583115
UNKNOWN109279,AL,ST. CLAIR,STEELE,115,115,1,33.93187169,-86.18972146,-86.18972146,33.93187169
UNKNOWN109280,AL,ETOWAH,GADSDEN,115,115,5,34.02016111,-86.06703118,-86.06703118,34.020161110000004
UNKNOWN109281,AL,ST. CLAIR,ASHVILLE,115,115,2,33.8233896,-86.25382463,-86.25382463,33.82338959999999
UNKNOWN109282,AL,ST. CLAIR,ASHVILLE,115,115,1,33.78103309,-86.23675447,-86.23675447,33.781033089999994
UNKNOWN109283,AL,ST. CLAIR,RAGLAND,115,115,1,33.73438629,-86.15054328,-86.15054328,33.734386289999996
UNKNOWN109284,AL,ST. CLAIR,RAGLAND,115,115,5,33.73175936,-86.15161284,-86.15161283999998,33.73175936
UNKNOWN109285,AL,ST. CLAIR,RAGLAND,115,115,1,33.73296313,-86.15290344,-86.15290344,33.73296312999999
UNKNOWN109286,AL,ST. CLAIR,SPRINGVILLE,115,115,2,33.76554922,-86.47991613,-86.47991613,33.76554921999999
UNKNOWN109287,AL,JEFFERSON,ADAMSVILLE,230,230,2,33.63483615,-87.06139837,-87.06139837,33.63483614999999
UNKNOWN109290,AL,JEFFERSON,PINSON,115,115,2,33.70945255,-86.58538769,-86.58538769,33.709452549999995
UNKNOWN109291,AL,JEFFERSON,PINSON,115,115,2,33.72439155,-86.6568679,-86.65686790000001,33.72439154999999
UNKNOWN109292,AL,JEFFERSON,PINSON,115,115,1,33.69505442,-86.67416147,-86.67416147,33.69505442
UNKNOWN109293,AL,JEFFERSON,BIRMINGHAM,115,115,1,33.64414245,-86.65592669,-86.65592669,33.644142450000004
UNKNOWN109294,AL,JEFFERSON,BIRMINGHAM,115,115,1,33.63949838,-86.62333129,-86.62333128999998,33.63949837999999
UNKNOWN109295,AL,JEFFERSON,BIRMINGHAM,-999999,-999999,2,33.50469857,-86.81456353,-86.81456353,33.504698569999995
UNKNOWN109296,AL,JEFFERSON,BIRMINGHAM,115,-999999,2,33.49896681,-86.80886991,-86.80886991,33.49896680999999
UNKNOWN109297,AL,JEFFERSON,HOMEWOOD,115,115,1,33.46179096,-86.78403654,-86.78403654000002,33.46179096
UNKNOWN109298,AL,HOUSTON,DOTHAN,115,115,1,31.23466278,-85.36324936,-85.36324936,31.234662779999997
UNKNOWN109299,AL,HOUSTON,DOTHAN,115,115,1,31.20911354,-85.36717108,-85.36717108,31.20911354
UNKNOWN109300,AL,HOUSTON,DOTHAN,115,115,1,31.18920595,-85.39710446,-85.39710446,31.189205949999998
UNKNOWN109301,AL,HOUSTON,DOTHAN,115,115,1,31.19701741,-85.41332373,-85.41332373,31.19701740999999
UNKNOWN109302,AL,HOUSTON,DOTHAN,115,115,2,31.23523181,-85.45985191,-85.45985191,31.235231810000002
UNKNOWN109303,AL,HOUSTON,DOTHAN,115,115,2,31.27174058,-85.42990427,-85.42990427,31.27174058000001
UNKNOWN109304,AL,HOUSTON,DOTHAN,115,115,2,31.25396748,-85.40259962,-85.40259962,31.25396747999999
UNKNOWN109305,AL,HOUSTON,DOTHAN,115,115,2,31.23819482,-85.43215272,-85.43215272,31.23819482000001
UNKNOWN109306,AL,HOUSTON,DOTHAN,115,115,1,31.25218206,-85.48129533,-85.48129533,31.252182059999985
UNKNOWN109307,AL,BARBOUR,CLOPTON,115,115,1,31.72160702,-85.32759129,-85.32759129,31.721607019999993
UNKNOWN109308,AL,BARBOUR,EUFAULA,115,115,2,31.84470888,-85.17434297,-85.17434297,31.84470888
UNKNOWN109309,AL,BARBOUR,EUFAULA,115,-999999,6,31.87349394,-85.15654551,-85.15654551,31.873493939999996
UNKNOWN109310,AL,RUSSELL,PITTSVIEW,115,-999999,4,32.17629653,-85.03244279,-85.03244279,32.17629653
UNKNOWN109311,AL,DALE,FORT RUCKER,-999999,-999999,2,31.34505146,-85.71318289,-85.71318289,31.345051460000004
UNKNOWN109312,AL,DALE,FORT RUCKER,-999999,-999999,1,31.32342035,-85.72235139,-85.72235139,31.323420350000003
UNKNOWN109313,AL,COFFEE,ENTERPRISE,-999999,-999999,1,31.35351964,-85.80292856,-85.80292856000001,31.353519639999995
UNKNOWN109315,AL,COFFEE,ENTERPRISE,115,-999999,2,31.31034807,-85.92985488,-85.92985488,31.31034807
UNKNOWN109316,AL,COFFEE,ENTERPRISE,115,115,1,31.33207603,-85.80705991,-85.80705991,31.332076029999996
UNKNOWN109317,AL,WASHINGTON,MC INTOSH,115,115,2,31.29411063,-88.02742059,-88.02742059,31.294110630000002
UNKNOWN109318,AL,WASHINGTON,FRUITDALE,115,115,2,31.30198044,-88.36239451,-88.36239451,31.301980439999998
UNKNOWN109319,AL,MOBILE,MOUNT VERNON,230,230,3,31.1604252,-87.98309796,-87.98309795999998,31.16042519999999
UNKNOWN109320,AL,MOBILE,MOUNT VERNON,230,230,2,31.1475809,-87.98278779,-87.98278778999999,31.1475809
UNKNOWN109321,AL,CLARKE,JACKSON,115,115,1,31.50435855,-87.91999851,-87.91999851,31.504358549999992
UNKNOWN109322,AL,CLARKE,JACKSON,115,-999999,3,31.53410628,-87.93086523,-87.93086523,31.534106280000003
UNKNOWN109323,AL,CLARKE,JACKSON,115,115,2,31.49301628,-87.89786221,-87.89786221,31.49301628000001
UNKNOWN109325,AL,WASHINGTON,LEROY,115,115,2,31.48388891,-87.91345677,-87.91345677,31.483888909999994
UNKNOWN109326,AL,CLARKE,JACKSON,115,-999999,3,31.47798892,-87.83652044,-87.83652044000002,31.477988920000005
UNKNOWN109024,AL,HOUSTON,DOTHAN,115,115,1,31.20834134,-85.48742656,-85.48742656000002,31.208341339999993
UNKNOWN109698,MS,COVINGTON,COLLINS,115,-999999,3,31.65003354,-89.57416334,-89.57416333999998,31.65003354
UNKNOWN109327,AL,CLARKE,JACKSON,-999999,-999999,1,31.5978635,-87.87018064,-87.87018064,31.597863499999992
UNKNOWN109328,AL,CLARKE,DICKINSON,-999999,-999999,1,31.77293304,-87.63878516,-87.63878516,31.772933040000005
UNKNOWN109329,AL,ESCAMBIA,ATMORE,115,115,1,31.09984716,-87.48433281,-87.48433281,31.099847159999996
UNKNOWN109330,AL,BALDWIN,PERDIDO,115,115,1,31.02676667,-87.62017926,-87.62017926,31.026766670000004
UNKNOWN109331,AL,MOBILE,SARALAND,115,115,1,30.80439027,-88.07531633,-88.07531633,30.804390269999995
UNKNOWN109332,AL,MOBILE,MOBILE,115,115,1,30.79098294,-88.05595731,-88.05595731,30.790982939999992
UNKNOWN109333,AL,MOBILE,MOBILE,115,115,1,30.71422638,-88.35731812,-88.35731812,30.714226379999992
UNKNOWN109334,AL,BALDWIN,DAPHNE,115,115,1,30.64226631,-87.85146833,-87.85146832999999,30.642266309999993
UNKNOWN109335,AL,BALDWIN,DAPHNE,-999999,-999999,0,30.65013483,-87.91100235,-87.91100235,30.650134830000002
UNKNOWN109336,AL,BALDWIN,LILLIAN,-999999,-999999,1,30.41051737,-87.44759216,-87.44759216,30.410517369999994
UNKNOWN109337,AL,BALDWIN,LOXLEY,115,115,1,30.61553936,-87.74475798,-87.74475797999999,30.615539359999996
UNKNOWN109338,AL,ESCAMBIA,FLOMATON,115,-999999,2,31.00629698,-87.24378688,-87.24378688,31.00629697999999
UNKNOWN109339,AL,MACON,UNION SPRINGS,115,115,2,32.24594258,-85.57976796,-85.57976796,32.24594257999998
UNKNOWN109340,AL,MACON,TUSKEGEE,115,115,2,32.46317187,-85.5636711,-85.56367109999998,32.46317187
UNKNOWN109341,AL,LEE,OPELIKA,115,115,1,32.54930929,-85.34131934,-85.34131934,32.54930929
UNKNOWN109342,AL,LEE,OPELIKA,115,115,1,32.60923111,-85.30026254,-85.30026254000002,32.609231109999996
UNKNOWN109343,AL,LEE,OPELIKA,115,115,1,32.67912027,-85.26853467,-85.26853467000001,32.67912026999999
UNKNOWN109344,AL,LEE,OPELIKA,115,115,1,32.70627985,-85.31092485,-85.31092485,32.706279849999994
UNKNOWN109345,AL,LEE,SMITHS STATION,230,-999999,14,32.60824716,-85.08260705,-85.08260705,32.60824716
UNKNOWN109346,AL,LEE,FORTSON,115,115,1,32.61055961,-85.08282096,-85.08282096,32.610559609999996
UNKNOWN109347,AL,LEE,SMITHS STATION,230,230,3,32.60842234,-85.09655884,-85.09655884,32.60842233999998
UNKNOWN109348,AL,CHAMBERS,LAFAYETTE,230,230,3,32.78628143,-85.42474107,-85.42474107,32.78628143
UNKNOWN109349,AL,CHAMBERS,OPELIKA,230,115,6,32.74353242,-85.34178633,-85.34178632999999,32.74353242
UNKNOWN109350,AL,LEE,SALEM,115,115,5,32.66116446,-85.09217508,-85.09217508,32.661164459999995
UNKNOWN109351,AL,LEE,SMITHS STATION,115,115,1,32.53306929,-85.02906612,-85.02906612000001,32.53306928999999
UNKNOWN109352,AL,LEE,SMITHS STATION,230,230,3,32.54150764,-85.03803853,-85.03803853,32.54150763999999
UNKNOWN109353,AL,LEE,SMITHS STATION,230,115,3,32.52087063,-85.14737002,-85.14737001999998,32.52087062999999
UNKNOWN109354,AL,LEE,PHENIX CITY,115,115,2,32.50006436,-85.14708599,-85.14708599000001,32.500064359999996
UNKNOWN109355,AL,RUSSELL,PHENIX CITY,115,115,1,32.43859531,-85.09506978,-85.09506978,32.43859531
UNKNOWN109356,AL,RUSSELL,PHENIX CITY,115,115,4,32.42484356,-85.02103492,-85.02103492,32.42484355999999
UNKNOWN109357,AL,PIKE,TROY,-999999,-999999,1,31.78967568,-85.96284489,-85.96284489000001,31.789675679999988
UNKNOWN109026,AL,DALE,FORT RUCKER,-999999,-999999,1,31.32816835,-85.70800926,-85.70800926,31.32816835
UNKNOWN109028,AL,DALE,LEVEL PLAINS,-999999,-999999,1,31.30725224,-85.77312637,-85.77312637,31.307252239999986
UNKNOWN109029,AL,COFFEE,ENTERPRISE,115,-999999,4,31.29983955,-85.83604757,-85.83604757000002,31.299839549999998
UNKNOWN109030,AL,GENEVA,SAMSON,-999999,-999999,1,31.10405198,-86.01702747,-86.01702747,31.10405198
UNKNOWN109031,AL,COFFEE,ENTERPRISE,115,-999999,2,31.31814939,-85.853121,-85.853121,31.31814938999999
UNKNOWN109032,AL,PIKE,BRUNDIDGE,115,115,1,31.73720321,-85.82094653,-85.82094653,31.737203209999997
UNKNOWN109033,AL,PIKE,BRUNDIDGE,115,-999999,6,31.72760311,-85.82639058,-85.82639058,31.72760310999999
UNKNOWN109034,AL,PIKE,TROY,115,-999999,4,31.81120516,-86.00292839,-86.00292839000001,31.811205160000004
UNKNOWN109035,AL,PIKE,GOSHEN,-999999,-999999,2,31.72691846,-86.12131607,-86.12131607,31.726918459999997
UNKNOWN109036,AL,MONTGOMERY,GRADY,115,115,4,32.02482071,-86.11997956,-86.11997956,32.02482071
UNKNOWN109037,AL,PIKE,BANKS,115,-999999,3,31.82496101,-85.77897427,-85.77897426999999,31.82496101
UNKNOWN109699,MS,COVINGTON,COLLINS,-999999,-999999,1,31.63809692,-89.74016386,-89.74016386,31.638096920000002
UNKNOWN109038,AL,DALE,OZARK,115,-999999,3,31.50504779,-85.64662278,-85.64662278,31.505047789999995
UNKNOWN109039,AL,DALE,ARITON,115,115,2,31.58688868,-85.72498729,-85.72498729,31.586888679999987
UNKNOWN109700,MS,COVINGTON,COLLINS,115,-999999,4,31.65212074,-89.53824295,-89.53824295000001,31.652120740000004
UNKNOWN109040,AL,COFFEE,JACK,115,115,1,31.55407519,-85.90780697,-85.90780697,31.554075190000002
UNKNOWN109701,MS,COVINGTON,COLLINS,161,115,4,31.69557554,-89.51026942,-89.51026942,31.695575540000004
UNKNOWN109041,AL,PIKE,BRUNDIDGE,115,115,2,31.7193392,-85.834311,-85.834311,31.7193392
UNKNOWN109042,AL,COVINGTON,ANDALUSIA,115,115,4,31.40100814,-86.47724488,-86.47724487999999,31.40100814
UNKNOWN109043,AL,COVINGTON,ANDALUSIA,-999999,-999999,2,31.4021158,-86.4786567,-86.47865670000002,31.402115799999994
UNKNOWN110014,MS,HARRISON,GULFPORT,115,115,2,30.3848893,-89.04720525,-89.04720525,30.384889300000005
UNKNOWN109044,AL,COVINGTON,ANDALUSIA,115,115,1,31.39859294,-86.47671486,-86.47671485999999,31.398592939999997
UNKNOWN110015,MS,HARRISON,GULFPORT,115,115,2,30.37188836,-89.09616726,-89.09616725999999,30.37188835999999
UNKNOWN109573,AL,JEFFERSON,BIRMINGHAM,-999999,-999999,0,33.56374381,-86.79998317,-86.79998317,33.56374381
UNKNOWN109045,AL,COVINGTON,ANDALUSIA,115,115,3,31.3299201,-86.46263709,-86.46263709,31.329920099999995
UNKNOWN109801,AL,MONTGOMERY,MONTGOMERY,115,115,1,32.33099944,-86.23056166,-86.23056166,32.33099944
UNKNOWN110016,MS,HARRISON,LONG BEACH,115,-999999,3,30.36801053,-89.15405467,-89.15405467,30.36801053
UNKNOWN109574,AL,JEFFERSON,BIRMINGHAM,115,-999999,4,33.49096799,-86.93247711,-86.93247711000001,33.49096799
UNKNOWN109802,MS,JONES,MOSELLE,-999999,-999999,1,31.47565077,-89.34764178,-89.34764178,31.47565077
UNKNOWN109575,AL,JEFFERSON,FAIRFIELD,-999999,-999999,3,33.48766957,-86.91996565,-86.91996565,33.487669569999994
UNKNOWN110017,MS,HARRISON,PASS CHRISTIAN,-999999,-999999,2,30.33990251,-89.21674935,-89.21674935000001,30.339902509999998
UNKNOWN109046,AL,COVINGTON,ANDALUSIA,115,115,1,31.32721986,-86.43604073,-86.43604073,31.327219859999996
UNKNOWN109576,AL,CHILTON,BILLINGSLEY,115,115,3,32.67064568,-86.72174695,-86.72174695,32.67064567999999
UNKNOWN110018,MS,HARRISON,PASS CHRISTIAN,-999999,-999999,2,30.38361718,-89.3097271,-89.3097271,30.38361718
UNKNOWN109047,AL,COVINGTON,ANDALUSIA,115,115,2,31.28575833,-86.44596029,-86.44596029,31.285758329999997
UNKNOWN109577,AL,CALHOUN,EASTABOGA,230,115,5,33.58664078,-85.9721778,-85.9721778,33.58664078
UNKNOWN109803,MS,LAMAR,HATTIESBURG,115,-999999,4,31.33171233,-89.39858129,-89.39858129,31.331712330000002
UNKNOWN109048,AL,COVINGTON,ANDALUSIA,230,-999999,4,31.4000161,-86.47238552,-86.47238551999999,31.40001609999999
BELLEFONTE,AL,JACKSON,HOLLYWOOD,500,161,7,34.71015299,-85.92924153,-85.92924153,34.71015298999999
UNKNOWN109804,MS,LAMAR,HATTIESBURG,161,-999999,5,31.33033912,-89.44840515,-89.44840514999999,31.33033912
UNKNOWN109805,MS,LAMAR,SUMRALL,115,-999999,3,31.41862765,-89.50265831,-89.50265831,31.418627649999994
UNKNOWN109806,MS,LAMAR,SUMRALL,-999999,-999999,1,31.41773944,-89.54718096,-89.54718096,31.41773943999999
UNKNOWN109807,MS,JEFFERSON DAVIS,BASSFIELD,-999999,-999999,1,31.49486637,-89.74025948,-89.74025948,31.49486637000001
UNKNOWN109808,MS,LAMAR,SUMRALL,115,-999999,2,31.37893264,-89.58073201,-89.58073201,31.37893264
UNKNOWN109809,MS,MARION,COLUMBIA,161,-999999,7,31.27935914,-89.77517046,-89.77517045999998,31.27935914
UNKNOWN109810,MS,MONROE,ABERDEEN,-999999,-999999,1,33.83235429,-88.4562541,-88.4562541,33.83235429
UNKNOWN109811,MS,MONROE,ABERDEEN,161,-999999,3,33.77210568,-88.56019413,-88.56019413,33.77210567999999
UNKNOWN109812,MS,MONROE,AMORY,-999999,-999999,1,33.99008707,-88.50365925,-88.50365924999998,33.99008706999999
UNKNOWN109813,MS,MONROE,AMORY,161,-999999,3,33.96660271,-88.48327143,-88.48327143,33.96660270999999
UNKNOWN109814,MS,MONROE,OKOLONA,69,69,1,33.98622567,-88.65171744,-88.65171744,33.986225669999996
UNKNOWN109815,MS,CHICKASAW,OKOLONA,69,69,2,34.0111858,-88.73846578,-88.73846578,34.01118579999999
UNKNOWN109821,MS,MONROE,ABERDEEN,161,161,1,33.8697658,-88.69322077,-88.69322077000001,33.869765799999996
UNKNOWN109822,MS,CALHOUN,VARDAMAN,161,161,1,33.90435843,-89.17944107,-89.17944107,33.90435843
UNKNOWN109823,MS,CHICKASAW,OKOLONA,69,69,1,34.00835998,-88.74620436,-88.74620435999998,34.00835998
UNKNOWN109824,MS,LEE,SHANNON,69,69,1,34.12028125,-88.70811072,-88.70811072,34.12028124999999
UNKNOWN109825,MS,LEE,TUPELO,-999999,-999999,1,34.23805525,-88.68429666,-88.68429665999999,34.238055249999995
UNKNOWN109826,MS,LEE,TUPELO,161,-999999,2,34.24624278,-88.71469212,-88.71469212,34.246242779999996
UNKNOWN109827,MS,LEE,TUPELO,161,161,2,34.2641673,-88.73063116,-88.73063116,34.26416729999998
UNKNOWN109828,MS,LEE,TUPELO,161,161,1,34.27413784,-88.76484785,-88.76484785,34.27413784
UNKNOWN109829,MS,LEE,TUPELO,161,161,1,34.22650102,-88.71645255,-88.71645254999999,34.22650102
UNKNOWN109830,MS,LEE,SALTILLO,-999999,-999999,2,34.31611061,-88.69265497,-88.69265497,34.31611061
UNKNOWN109833,AL,ELMORE,TALLASSEE,115,115,1,32.67417475,-85.94393839,-85.94393839,32.67417474999999
UNKNOWN109834,AL,ELMORE,ECLECTIC,115,115,1,32.69558271,-86.05152872,-86.05152872000001,32.69558270999999
UNKNOWN109835,AL,ELMORE,WETUMPKA,115,115,1,32.57650257,-86.17549414,-86.17549413999998,32.576502569999995
UNKNOWN109836,AL,TALLAPOOSA,DADEVILLE,115,115,1,32.72200644,-85.82765382,-85.82765382,32.72200644
UNKNOWN109837,AL,TALLAPOOSA,DADEVILLE,115,115,4,32.85549206,-85.79136488,-85.79136488,32.85549206
UNKNOWN109838,AL,RANDOLPH,WEDOWEE,115,115,7,33.26423119,-85.63468165,-85.63468165,33.26423118999999
UNKNOWN109839,AL,TALLAPOOSA,NEW SITE,115,115,1,33.04671715,-85.7742353,-85.7742353,33.04671714999999
UNKNOWN109840,AL,TALLAPOOSA,ALEXANDER CITY,115,115,1,32.93531685,-85.94733285,-85.94733285,32.93531685
UNKNOWN109841,AL,TALLAPOOSA,ALEXANDER CITY,115,115,1,32.92585396,-85.93808474,-85.93808474,32.92585396
UNKNOWN109842,AL,TALLAPOOSA,DADEVILLE,115,-999999,2,32.84798989,-85.76870941,-85.76870941,32.84798989
UNKNOWN109843,AL,CHAMBERS,WAVERLY,-999999,-999999,2,32.73423819,-85.5889558,-85.5889558,32.73423818999999
UNKNOWN109844,AL,LEE,OPELIKA,230,-999999,9,32.66355698,-85.44885667,-85.44885667,32.663556979999996
UNKNOWN109845,AL,TALLAPOOSA,CAMP HILL,-999999,-999999,1,32.79211547,-85.65620157,-85.65620157,32.79211547
UNKNOWN109846,AL,MONTGOMERY,MONTGOMERY,115,115,1,32.25965379,-86.36644057,-86.36644057,32.259653789999994
UNKNOWN109847,AL,MONTGOMERY,MONTGOMERY,115,115,3,32.41957573,-86.29349389,-86.29349389,32.41957573
UNKNOWN109848,AL,MONTGOMERY,MONTGOMERY,115,115,1,32.39832888,-86.07134535,-86.07134535,32.39832888
UNKNOWN109849,AL,ELMORE,MILLBROOK,115,115,1,32.50757616,-86.36414186,-86.36414186,32.50757616
UNKNOWN109850,AL,ELMORE,MILLBROOK,115,115,1,32.47699682,-86.35997534,-86.35997534000002,32.476996820000004
UNKNOWN109851,AL,MONTGOMERY,MONTGOMERY,-999999,-999999,1,32.42224804,-86.28422823,-86.28422822999998,32.42224803999999
UNKNOWN109852,AL,MONTGOMERY,MONTGOMERY,-999999,-999999,1,32.42557743,-86.28113246,-86.28113246,32.42557743
UNKNOWN109853,AL,LEE,AUBURN,115,115,2,32.66270045,-85.48047053,-85.48047053,32.662700449999996
UNKNOWN109854,AL,LEE,AUBURN,115,115,1,32.66351683,-85.51437316,-85.51437316,32.66351682999999
UNKNOWN109855,AL,CHOCTAW,PENNINGTON,115,-999999,4,32.22582439,-88.02392618,-88.02392618000002,32.22582438999999
UNKNOWN109856,AL,HALE,GREENSBORO,115,115,1,32.6745536,-87.60249823,-87.60249823,32.6745536
UNKNOWN109857,AL,HALE,GREENSBORO,115,115,1,32.66181242,-87.70356916,-87.70356916,32.66181242
UNKNOWN109858,AL,SUMTER,LIVINGSTON,-999999,-999999,1,32.68120548,-88.10645131,-88.10645130999998,32.681205479999996
UNKNOWN109859,AL,SUMTER,LIVINGSTON,-999999,-999999,3,32.67914092,-88.12021772,-88.12021772,32.679140919999995
UNKNOWN109860,AL,SUMTER,LIVINGSTON,-999999,-999999,1,32.60209387,-88.16236309,-88.16236309,32.60209387
UNKNOWN109861,AL,SUMTER,LIVINGSTON,115,-999999,2,32.45273486,-88.12231881,-88.12231881,32.45273486
UNKNOWN109862,AL,GREENE,EUTAW,115,-999999,6,32.89472159,-87.86872553,-87.86872553,32.894721589999996
UNKNOWN109863,AL,TUSCALOOSA,TUSCALOOSA,115,115,1,33.15012349,-87.53043419,-87.53043419000001,33.15012348999999
UNKNOWN109865,AL,TUSCALOOSA,TUSCALOOSA,115,-999999,2,33.06275242,-87.57606616,-87.57606616,33.06275242
UNKNOWN109866,AL,TUSCALOOSA,BUHL,115,115,1,33.15387138,-87.74843328,-87.74843328,33.15387137999999
UNKNOWN109867,AL,HALE,AKRON,115,115,1,32.87935025,-87.70868894,-87.70868893999999,32.87935024999999
UNKNOWN109868,AL,HALE,AKRON,-999999,-999999,1,32.87959727,-87.7079551,-87.70795510000002,32.879597269999984
UNKNOWN109869,AL,GREENE,EUTAW,-999999,-999999,1,32.84049819,-87.87235223,-87.87235223,32.84049818999999
UNKNOWN109870,AL,MARENGO,FAUNSDALE,115,115,2,32.47567342,-87.59424361,-87.59424361000002,32.47567342
UNKNOWN109871,AL,LOWNDES,TYLER,115,115,1,32.30968548,-86.84033861,-86.84033861,32.30968548
UNKNOWN109872,AL,TALLADEGA,CHILDERSBURG,115,115,1,33.34509158,-86.35158578,-86.35158578,33.345091579999995
UNKNOWN109873,AL,TALLADEGA,ALPINE,115,115,1,33.37507765,-86.32731749,-86.32731749,33.37507765000001
UNKNOWN109874,AL,TALLADEGA,ALPINE,115,115,1,33.42084379,-86.286496,-86.286496,33.42084378999999
UNKNOWN109875,AL,ST. CLAIR,VINCENT,115,115,5,33.42570949,-86.3380375,-86.3380375,33.42570949
UNKNOWN109876,AL,TALLADEGA,ALPINE,115,115,1,33.42520742,-86.29839846,-86.29839846000002,33.42520741999999
UNKNOWN109877,AL,TALLADEGA,CHILDERSBURG,-999999,-999999,1,33.32777268,-86.35605772,-86.35605772,33.327772679999995
UNKNOWN109878,AL,SHELBY,STERRETT,115,115,3,33.35116954,-86.5692909,-86.5692909,33.35116954
UNKNOWN109884,MS,RANKIN,FLORENCE,115,-999999,3,32.16729435,-90.09988063,-90.09988063,32.16729435
UNKNOWN109885,MS,LAWRENCE,SILVER CREEK,115,115,7,31.60038546,-89.98680213,-89.98680213,31.60038546
UNKNOWN109887,MS,HINDS,BOLTON,115,115,4,32.31207774,-90.46066826,-90.46066826,32.31207773999999
EAST VICKSBURG,MS,WARREN,VICKSBURG,115,115,2,32.31183007,-90.86208712,-90.86208712,32.31183007
BEACH GROVE,MS,WARREN,VICKSBURG,115,115,3,32.31216115,-90.8089468,-90.8089468,32.312161149999994
UNKNOWN109891,MS,HINDS,EDWARDS,115,115,2,32.31179278,-90.6148549,-90.61485490000001,32.311792780000005
UNKNOWN109892,MS,HINDS,BYRAM,115,115,3,32.13611402,-90.28230039,-90.28230039,32.13611402
UNKNOWN109580,AL,RANDOLPH,WEDOWEE,115,115,3,33.25701296,-85.61756877,-85.61756877,33.25701295999999
UNKNOWN109588,MS,LOWNDES,COLUMBUS,-999999,-999999,2,33.49409713,-88.41455603,-88.41455602999999,33.49409712999999
UNKNOWN109589,MS,LOWNDES,COLUMBUS,161,-999999,4,33.48304589,-88.36177528,-88.36177528,33.48304588999999
UNKNOWN109590,MS,LOWNDES,COLUMBUS,-999999,-999999,1,33.50232941,-88.36292006,-88.36292005999998,33.502329409999994
UNKNOWN109591,MS,LOWNDES,COLUMBUS,-999999,-999999,1,33.51129755,-88.4149128,-88.4149128,33.51129755
UNKNOWN109592,MS,LOWNDES,COLUMBUS,-999999,-999999,1,33.46967446,-88.36437584,-88.36437584,33.46967445999999
UNKNOWN109593,MS,LOWNDES,COLUMBUS,161,161,1,33.51966295,-88.35427703,-88.35427703,33.51966294999999
UNKNOWN109594,MS,LOWNDES,CALEDONIA,161,-999999,2,33.70253022,-88.30392182,-88.30392182,33.70253022000001
UNKNOWN109595,MS,MONROE,CALEDONIA,161,161,1,33.88298038,-88.26990194,-88.26990193999998,33.88298037999999
UNKNOWN109596,MS,LOWNDES,COLUMBUS,-999999,-999999,1,33.52849802,-88.42875671,-88.42875671,33.528498019999994
UNKNOWN109599,MS,LOWNDES,CALEDONIA,161,161,1,33.64445338,-88.31476643,-88.31476643000002,33.64445338
UNKNOWN109601,MS,MONROE,HAMILTON,161,-999999,4,33.72773298,-88.45313531,-88.45313531,33.72773297999999
UNKNOWN109602,MS,ITAWAMBA,FULTON,-999999,-999999,1,34.27335023,-88.42184576,-88.42184576,34.27335023
UNKNOWN109603,MS,ITAWAMBA,FULTON,161,161,1,34.2532857,-88.41555474,-88.41555474,34.25328569999999
UNKNOWN109604,MS,MONROE,HAMILTON,161,161,1,33.72509246,-88.45020263,-88.45020263,33.72509246
UNKNOWN110029,AL,MONTGOMERY,MONTGOMERY,115,115,1,32.37333664,-86.18263522,-86.18263522,32.37333664
UNKNOWN110030,AL,MONTGOMERY,MONTGOMERY,115,115,1,32.35335449,-86.26496997,-86.26496996999998,32.353354489999994
UNKNOWN110031,AL,MONTGOMERY,MONTGOMERY,115,115,2,32.32882348,-86.26590643,-86.26590643,32.32882347999999
UNKNOWN110032,AL,MONTGOMERY,MONTGOMERY,115,115,1,32.30972733,-86.12986152,-86.12986152,32.309727329999994
UNKNOWN110033,AL,MONTGOMERY,MONTGOMERY,115,115,1,32.33096288,-86.15884656,-86.15884656,32.33096288
UNKNOWN110034,AL,ESCAMBIA,BREWTON,115,-999999,5,31.1308108,-87.08977357,-87.08977357,31.130810800000003
UNKNOWN110035,AL,ESCAMBIA,BREWTON,-999999,-999999,1,31.1099049,-87.07383773,-87.07383773,31.109904899999993
UNKNOWN110036,AL,ESCAMBIA,BREWTON,-999999,-999999,1,31.09990111,-87.07293289,-87.07293289000002,31.09990111000001
UNKNOWN110037,AL,ESCAMBIA,BREWTON,-999999,-999999,2,31.0786577,-87.1118466,-87.1118466,31.078657699999994
UNKNOWN110038,AL,ESCAMBIA,FLOMATON,-999999,-999999,1,31.03403435,-87.18477625,-87.18477625,31.03403434999999
UNKNOWN109134,AL,MOBILE,AXIS,115,115,1,30.98657096,-88.01448413,-88.01448413,30.98657095999999
UNKNOWN110039,AL,ESCAMBIA,FLOMATON,-999999,-999999,1,31.01397595,-87.26297764,-87.26297764,31.013975950000003
UNKNOWN110040,AL,ESCAMBIA,BREWTON,115,115,1,31.13723506,-87.07520501,-87.07520501,31.13723506
UNKNOWN110041,AL,ESCAMBIA,ATMORE,-999999,-999999,1,31.22381011,-87.4581476,-87.45814760000002,31.22381011
UNKNOWN110042,AL,MONROE,FRISCO CITY,-999999,-999999,1,31.33771507,-87.42850894,-87.42850894,31.337715069999994
UNKNOWN110043,AL,MONROE,MONROEVILLE,-999999,-999999,1,31.52684799,-87.32145799,-87.32145799,31.526847989999993
UNKNOWN109049,AL,COVINGTON,ANDALUSIA,115,115,1,31.32028177,-86.32958952,-86.32958952,31.32028177
UNKNOWN109605,MS,SCOTT,FOREST,115,115,1,32.35817384,-89.5219865,-89.5219865,32.35817384
UNKNOWN110065,MS,ITAWAMBA,BALDWYN,-999999,-999999,1,34.42991322,-88.50041492,-88.50041491999998,34.42991322
UNKNOWN110066,MS,CALHOUN,BRUCE,-999999,-999999,2,33.99530723,-89.33082164,-89.33082164000001,33.99530723
UNKNOWN110067,MS,MONTGOMERY,WINONA,115,115,1,33.5074283,-89.73719448,-89.73719447999999,33.507428299999994
UNKNOWN110068,MS,LEFLORE,GREENWOOD,115,115,1,33.51196489,-90.12777336,-90.12777336,33.51196488999999
UNKNOWN110069,MS,GRENADA,GRENADA,115,115,1,33.67734892,-89.74579335,-89.74579335,33.67734892
UNKNOWN110070,MS,GRENADA,GRENADA,230,-999999,3,33.72880991,-89.79170533,-89.79170533,33.72880991
UNKNOWN110071,MS,GRENADA,GRENADA,230,-999999,2,33.7886416,-89.81909322,-89.81909322,33.78864159999999
UNKNOWN110073,MS,HOLMES,DURANT,115,115,2,33.06179392,-89.8610057,-89.8610057,33.06179392
UNKNOWN110074,MS,YAZOO,YAZOO CITY,115,115,5,32.88400007,-90.39056841,-90.39056841,32.88400006999999
UNKNOWN110075,MS,YAZOO,YAZOO CITY,115,115,2,32.89924957,-90.3796272,-90.3796272,32.89924957
UNKNOWN110076,MS,YAZOO,YAZOO CITY,115,115,1,32.88729618,-90.4157866,-90.4157866,32.88729618
UNKNOWN110077,MS,YAZOO,YAZOO CITY,115,115,3,32.84227084,-90.43339365,-90.43339365,32.84227084
UNKNOWN110078,MS,YAZOO,YAZOO CITY,115,115,2,32.84613828,-90.4213649,-90.4213649,32.84613827999999
UNKNOWN110085,MS,HINDS,JACKSON,115,115,7,32.35787525,-90.21328288,-90.21328288,32.35787525
UNKNOWN110086,MS,HINDS,JACKSON,115,115,2,32.3860228,-90.1566464,-90.1566464,32.386022799999985
UNKNOWN110087,MS,HINDS,JACKSON,115,115,2,32.36423607,-90.14473773,-90.14473773,32.36423606999999
UNKNOWN110088,MS,HINDS,JACKSON,115,-999999,3,32.33342905,-90.14123113,-90.14123113,32.33342904999999
UNKNOWN110119,MS,HOLMES,LEXINGTON,115,115,1,33.13910188,-90.10205033,-90.10205033,33.13910188
UNKNOWN110120,MS,YAZOO,BENTONIA,115,115,1,32.69433685,-90.44275022,-90.44275022,32.69433684999999
UNKNOWN110121,MS,HINDS,CLINTON,230,230,2,32.36063714,-90.37144586,-90.37144586,32.36063713999999
UNKNOWN110124,MS,MADISON,RIDGELAND,230,230,2,32.45396214,-90.18918977,-90.18918977,32.453962139999994
UNKNOWN110130,AL,JEFFERSON,LEEDS,115,115,1,33.53866864,-86.54299877,-86.54299877,33.53866863999998
UNKNOWN110131,AL,SHELBY,ALABASTER,115,115,1,33.25056459,-86.8169839,-86.8169839,33.25056458999999
UNKNOWN110132,AL,SHELBY,ALABASTER,-999999,-999999,1,33.21842999,-86.81266288,-86.81266288,33.21842999
UNKNOWN110133,AL,SHELBY,ALABASTER,-999999,-999999,1,33.21718922,-86.78949624,-86.78949624,33.21718922000001
UNKNOWN110134,AL,SHELBY,PELHAM,115,115,1,33.28230191,-86.80268865,-86.80268865000001,33.28230191
UNKNOWN109050,AL,CONECUH,EVERGREEN,115,115,1,31.41975411,-86.87938908,-86.87938908000001,31.419754109999992
UNKNOWN109051,AL,CONECUH,CASTLEBERRY,230,-999999,7,31.42260686,-87.10818196,-87.10818196,31.42260685999999
UNKNOWN109606,MS,SCOTT,FOREST,115,115,2,32.35577145,-89.49799803,-89.49799803,32.35577144999999
UNKNOWN109052,AL,COVINGTON,ANDALUSIA,-999999,-999999,4,31.40362326,-86.48014382,-86.48014382,31.403623260000007
UNKNOWN109607,MS,RANKIN,PELAHATCHIE,115,115,3,32.32169729,-89.74663789,-89.74663789000002,32.32169728999999
UNKNOWN109053,AL,COVINGTON,RIVER FALLS,-999999,-999999,2,31.36537968,-86.5221656,-86.52216559999998,31.36537968
UNKNOWN109135,AL,MOBILE,MOBILE,115,115,1,30.71618618,-88.22607299,-88.22607299,30.716186179999998
UNKNOWN109608,MS,SMITH,TAYLORSVILLE,115,-999999,4,31.83467205,-89.4691237,-89.46912370000001,31.834672050000005
UNKNOWN109054,AL,COVINGTON,ANDALUSIA,115,115,1,31.33112013,-86.48703871,-86.48703871,31.331120130000006
UNKNOWN109609,MS,SMITH,MIZE,-999999,-999999,1,31.97832995,-89.52261472,-89.52261472,31.978329949999996
UNKNOWN109712,AL,BALDWIN,FOLEY,115,115,1,30.38453111,-87.75900265,-87.75900265,30.38453111
UNKNOWN109055,AL,COVINGTON,ANDALUSIA,-999999,-999999,2,31.32065413,-86.4606005,-86.4606005,31.320654129999994
UNKNOWN109610,MS,JASPER,HEIDELBERG,69,69,1,31.91326657,-89.01783427,-89.01783427,31.913266570000005
UNKNOWN109713,AL,BALDWIN,FOLEY,115,115,1,30.39237354,-87.71762748,-87.71762748,30.39237353999999
UNKNOWN109611,MS,JONES,LAUREL,230,-999999,6,31.69073972,-89.10168029,-89.10168029,31.690739719999996
UNKNOWN109714,AL,BALDWIN,FOLEY,115,115,1,30.4169562,-87.68030701,-87.68030701,30.416956199999998
UNKNOWN109612,MS,CLARKE,QUITMAN,115,-999999,5,32.04219368,-88.73474282,-88.73474282,32.04219368
UNKNOWN109056,AL,CONECUH,EVERGREEN,115,115,3,31.42443912,-86.93586251,-86.93586251,31.42443912
UNKNOWN109715,AL,BALDWIN,ELBERTA,115,-999999,2,30.40773382,-87.51149261,-87.51149260999999,30.407733819999994
UNKNOWN109057,AL,MONROE,MONROEVILLE,115,115,2,31.50192292,-87.32582055,-87.32582055,31.50192292
UNKNOWN109613,MS,CLARKE,QUITMAN,115,115,3,32.0267626,-88.85877726,-88.85877726,32.0267626
UNKNOWN109136,AL,MOBILE,MOBILE,115,115,2,30.66606088,-88.27345967,-88.27345967000001,30.666060879999996
UNKNOWN109716,AL,MONTGOMERY,MONTGOMERY,230,230,1,32.28597218,-86.33036465,-86.33036465,32.28597218000001
UNKNOWN109058,AL,MOBILE,MOUNT VERNON,230,115,17,31.00551894,-88.01068102,-88.01068102,31.00551893999999
UNKNOWN109137,AL,MOBILE,THEODORE,115,115,1,30.57925543,-88.23643915,-88.23643915,30.57925543
UNKNOWN109059,AL,MOBILE,MT VERNON,230,230,3,31.01948696,-88.03651562,-88.03651562,31.019486959999995
UNKNOWN109717,AL,MOBILE,MOBILE,115,115,1,30.66523092,-88.23764935,-88.23764935,30.665230920000003
UNKNOWN109139,AL,MOBILE,IRVINGTON,115,-999999,6,30.49521242,-88.20354903,-88.20354902999999,30.49521241999999
UNKNOWN109061,AL,MOBILE,AXIS,500,230,8,30.99611275,-88.03028841,-88.03028841,30.996112749999998
UNKNOWN109718,AL,MOBILE,GRAND BAY,115,115,1,30.58812305,-88.34367026,-88.34367026000001,30.588123049999986
UNKNOWN109140,AL,MOBILE,THEODORE,115,115,1,30.51593616,-88.14183787,-88.14183787,30.51593616
UNKNOWN109617,MS,CLARKE,SHUBUTA,-999999,-999999,1,31.91814365,-88.53848832,-88.53848832,31.918143650000008
UNKNOWN109062,AL,MOBILE,MT VERNON,230,230,3,31.1015486,-88.04860141,-88.04860141,31.101548599999987
UNKNOWN109719,AL,MOBILE,THEODORE,115,115,1,30.52322331,-88.1069549,-88.1069549,30.523223310000006
UNKNOWN109141,AL,MOBILE,THEODORE,115,115,2,30.51660777,-88.13427965,-88.13427965,30.51660777
UNKNOWN109618,MS,OKTIBBEHA,STARKVILLE,161,-999999,5,33.50533304,-88.80255886,-88.80255886,33.50533304
WEST MCINTOSH (POWERSOUTH),AL,WASHINGTON,MC INTOSH,230,115,2,31.22509377,-88.03629792,-88.03629792,31.22509377
UNKNOWN109720,AL,MOBILE,CODEN,-999999,-999999,1,30.38297095,-88.23008683,-88.23008683,30.382970949999986
UNKNOWN109142,AL,MOBILE,THEODORE,115,115,3,30.52521536,-88.12778624,-88.12778624,30.525215359999994
UNKNOWN109619,MS,CHOCTAW,ACKERMAN,500,500,3,33.38582238,-89.20973193,-89.20973193,33.38582237999999
UNKNOWN109721,AL,MOBILE,CODEN,-999999,-999999,1,30.39519864,-88.19013287,-88.19013287,30.395198640000004
UNKNOWN109143,AL,MOBILE,THEODORE,115,115,1,30.53147197,-88.12470591,-88.12470591,30.53147196999999
UNKNOWN109065,AL,MOBILE,MOUNT VERNON,230,230,7,31.1358421,-87.99623571,-87.99623571,31.135842100000005
UNKNOWN109144,AL,MOBILE,THEODORE,115,115,1,30.54282129,-88.12903168,-88.12903168,30.542821289999992
UNKNOWN109066,AL,WASHINGTON,MC INTOSH,115,115,7,31.25392983,-88.02857061,-88.02857061,31.253929830000008
UNKNOWN109722,AL,MOBILE,CODEN,-999999,-999999,2,30.39303984,-88.16619258,-88.16619258,30.393039839999997
UNKNOWN109145,AL,MOBILE,THEODORE,115,115,1,30.55302308,-88.10223448,-88.10223447999999,30.553023079999985
UNKNOWN109146,AL,MOBILE,MOBILE,115,115,1,30.62990897,-88.10646934,-88.10646933999999,30.62990896999999
UNKNOWN109067,AL,WASHINGTON,LEROY,230,-999999,9,31.48664766,-87.91197444,-87.91197444,31.486647660000006
UNKNOWN109723,AL,MOBILE,CODEN,-999999,-999999,1,30.40247786,-88.17654472,-88.17654472000001,30.40247785999999
UNKNOWN109147,AL,MOBILE,MOBILE,115,115,1,30.61358094,-88.07294937,-88.07294937,30.61358094
UNKNOWN109620,MS,CHOCTAW,ACKERMAN,161,161,3,33.37516925,-89.21713961,-89.21713961,33.37516924999999
UNKNOWN109068,AL,MONROE,NOT AVAILABLE,230,230,2,31.58601419,-87.4976342,-87.4976342,31.586014189999997
UNKNOWN109724,AL,MOBILE,IRVINGTON,-999999,-999999,1,30.49490215,-88.2355759,-88.2355759,30.49490215
UNKNOWN109148,AL,MOBILE,BAYOU LA BATRE,-999999,-999999,1,30.42144524,-88.24466644,-88.24466644,30.421445240000004
UNKNOWN109621,MS,MONROE,SMITHVILLE,161,161,2,34.02371878,-88.39608613,-88.39608613,34.02371878
UNKNOWN109069,AL,CONECUH,CASTLEBERRY,115,115,1,31.33304711,-87.02710836,-87.02710836,31.33304710999999
UNKNOWN109149,AL,MOBILE,THEODORE,-999999,-999999,2,30.42949126,-88.18009123,-88.18009123,30.42949125999999
UNKNOWN109622,MS,OKTIBBEHA,STARKVILLE,161,-999999,4,33.46804177,-88.79933803,-88.79933803,33.46804177
UNKNOWN109150,AL,BALDWIN,BAY MINETTE,115,115,5,30.88185665,-87.79326564,-87.79326564,30.881856649999996
UNKNOWN109070,AL,MONROE,REPTON,115,115,2,31.42096685,-87.27742869,-87.27742869,31.420966850000003
UNKNOWN109725,AL,MOBILE,GRAND BAY,-999999,-999999,1,30.47815196,-88.33597182,-88.33597182,30.47815196
UNKNOWN109151,AL,BALDWIN,BAY MINETTE,115,115,1,30.86605582,-87.7769525,-87.7769525,30.866055819999996
UNKNOWN109623,MS,OKTIBBEHA,STARKVILLE,161,161,1,33.46578626,-88.9030936,-88.9030936,33.465786259999994
UNKNOWN109071,AL,ESCAMBIA,BREWTON,115,115,3,31.08732464,-87.10223496,-87.10223496,31.087324639999995
UNKNOWN109726,AL,MOBILE,THEODORE,115,115,1,30.52895996,-88.14128645,-88.14128645,30.528959959999987
UNKNOWN109152,AL,BALDWIN,BAY MINETTE,115,115,2,30.8875109,-87.76391576,-87.76391576000002,30.887510899999995
UNKNOWN109624,MS,OKTIBBEHA,STARKVILLE,69,69,1,33.45117496,-88.80223201,-88.80223201,33.45117496
UNKNOWN109072,AL,ESCAMBIA,ATMORE,115,115,2,31.07142752,-87.35936688,-87.35936688,31.071427519999997
UNKNOWN109727,AL,MOBILE,MOBILE,115,115,1,30.59192667,-88.16248927,-88.16248927,30.59192667
UNKNOWN109153,AL,BALDWIN,STOCKTON,115,115,1,30.98456521,-87.86693923,-87.86693923000001,30.984565209999992
UNKNOWN109625,MS,OKTIBBEHA,STARKVILLE,69,69,2,33.43604907,-88.83563418,-88.83563418,33.436049069999996
UNKNOWN109073,AL,ESCAMBIA,ATMORE,115,115,2,31.06962787,-87.51655684,-87.51655684000002,31.069627869999998
UNKNOWN109728,AL,CLARKE,JACKSON,-999999,-999999,2,31.438921,-87.75359703,-87.75359703,31.438920999999986
UNKNOWN109154,AL,MOBILE,CODEN,-999999,-999999,3,30.40270881,-88.1313609,-88.1313609,30.402708810000004
UNKNOWN109626,MS,OKTIBBEHA,STARKVILLE,69,69,2,33.4653676,-88.83546762,-88.83546762,33.4653676
UNKNOWN109074,AL,ESCAMBIA,ATMORE,115,115,4,30.99956161,-87.54199808,-87.54199808000001,30.999561609999994
UNKNOWN109627,MS,WEBSTER,MABEN,161,-999999,2,33.56973494,-89.08000998,-89.08000998,33.56973494
UNKNOWN109155,AL,MOBILE,THEODORE,-999999,-999999,3,30.40378914,-88.14687782,-88.14687781999999,30.40378914
UNKNOWN109729,AL,HENRY,ABBEVILLE,115,115,1,31.57159829,-85.2433491,-85.2433491,31.57159829
UNKNOWN109730,AL,HENRY,ABBEVILLE,-999999,-999999,1,31.70694083,-85.14741633,-85.14741633,31.70694082999999
UNKNOWN109731,AL,COFFEE,ELBA,-999999,-999999,2,31.4169751,-86.07937166,-86.07937166,31.416975100000002
UNKNOWN109732,AL,COFFEE,ELBA,-999999,-999999,2,31.41296834,-86.08065988,-86.08065988000001,31.412968339999995
UNKNOWN109733,AL,COFFEE,ELBA,-999999,-999999,1,31.36262071,-86.09472696,-86.09472695999999,31.36262070999999
UNKNOWN109734,AL,DALE,OZARK,115,115,1,31.45645873,-85.48146637,-85.48146637,31.456458729999987
UNKNOWN109735,AL,COVINGTON,OPP,-999999,-999999,1,31.28637572,-86.25784548,-86.25784548,31.28637571999999
UNKNOWN109736,AL,GENEVA,SAMSON,115,-999999,4,31.04662413,-85.90131337,-85.90131337,31.046624129999994
UNKNOWN109737,AL,CRENSHAW,LUVERNE,-999999,-999999,1,31.70241472,-86.24893582,-86.24893581999999,31.702414720000004
UNKNOWN109739,MS,JONES,MOSELLE,161,-999999,13,31.52893583,-89.30145467,-89.30145467000001,31.52893582999999
UNKNOWN109740,MS,SIMPSON,MAGEE,-999999,-999999,1,31.8687251,-89.66567915,-89.66567915,31.868725099999995
UNKNOWN109742,MS,FORREST,HATTIESBURG,115,-999999,9,31.3498625,-89.3230968,-89.3230968,31.349862499999986
UNKNOWN109743,MS,COVINGTON,COLLINS,-999999,-999999,3,31.64345275,-89.51831237,-89.51831237,31.643452749999998
UNKNOWN109744,MS,COVINGTON,COLLINS,-999999,-999999,2,31.64111155,-89.51687207,-89.51687207,31.641111549999994
UNKNOWN109745,MS,COVINGTON,COLLINS,-999999,-999999,3,31.61632772,-89.53862585,-89.53862585,31.616327719999997
UNKNOWN109746,MS,JONES,MOSELLE,-999999,-999999,1,31.54255034,-89.3481792,-89.3481792,31.542550340000012
UNKNOWN109747,MS,COVINGTON,COLLINS,-999999,-999999,1,31.65436584,-89.50592552,-89.50592552,31.654365839999997
UNKNOWN109748,MS,JONES,LAUREL,69,-999999,3,31.76392151,-89.16759693,-89.16759693,31.76392151
UNKNOWN109749,MS,JONES,LAUREL,-999999,-999999,1,31.68151731,-89.25189667,-89.25189667,31.681517309999997
UNKNOWN109750,MS,JONES,ELLISVILLE,-999999,-999999,1,31.61763443,-89.27095151,-89.27095151,31.617634430000003
UNKNOWN109751,MS,JONES,LAUREL,-999999,-999999,3,31.69432556,-88.99318195,-88.99318195,31.694325559999985
UNKNOWN109752,MS,JONES,LAUREL,-999999,-999999,1,31.76546049,-89.10010229,-89.10010229,31.765460490000002
TAP109753,MS,JONES,LAUREL,-999999,-999999,3,31.7618695,-89.1010546,-89.1010546,31.761869499999996
UNKNOWN109754,MS,JONES,LAUREL,115,115,3,31.70733307,-89.11825354,-89.11825354,31.70733307
UNKNOWN109755,MS,FORREST,HATTIESBURG,115,115,3,31.30137736,-89.28913215,-89.28913215,31.30137736
UNKNOWN109756,MS,FORREST,HATTIESBURG,115,-999999,3,31.28563674,-89.32449332,-89.32449332,31.285636739999998
UNKNOWN109757,MS,JONES,LAUREL,-999999,-999999,4,31.66645048,-89.1447,-89.1447,31.666450479999998
UNKNOWN109758,MS,JONES,LAUREL,115,-999999,2,31.68232044,-89.12559873,-89.12559873,31.682320439999998
UNKNOWN109759,MS,JONES,LAUREL,-999999,-999999,2,31.67975244,-89.12987249,-89.12987249000001,31.679752439999994
UNKNOWN109760,MS,JONES,ELLISVILLE,-999999,-999999,2,31.59467531,-89.21596065,-89.21596065,31.594675310000007
UNKNOWN109761,MS,JONES,LAUREL,-999999,-999999,2,31.66043794,-89.17829626,-89.17829626,31.66043794000001
WAYNESBORO,MS,WAYNE,WAYNESBORO,230,-999999,7,31.67833348,-88.69535331,-88.69535331,31.67833348
UNKNOWN109763,MS,WAYNE,WAYNESBORO,115,-999999,4,31.69303088,-88.8723,-88.8723,31.693030880000002
UNKNOWN109075,AL,ESCAMBIA,ATMORE,115,115,4,30.99916433,-87.60465996,-87.60465996,30.999164329999985
UNKNOWN109764,MS,WAYNE,WAYNESBORO,-999999,-999999,1,31.69273256,-88.87136804,-88.87136804000001,31.692732559999985
UNKNOWN109628,MS,CLAY,PHEBA,-999999,-999999,1,33.59173995,-88.96716827,-88.96716827,33.59173995
UNKNOWN109159,AL,MONTGOMERY,MONTGOMERY,115,115,2,32.42117316,-86.21963036,-86.21963036,32.421173159999995
UNKNOWN109160,AL,ELMORE,WETUMPKA,115,115,1,32.53517289,-86.20379555,-86.20379555,32.53517288999999
UNKNOWN109162,AL,MONTGOMERY,MONTGOMERY,115,115,2,32.30388545,-86.23867248,-86.23867248,32.303885449999996
UNKNOWN109163,AL,MONTGOMERY,MONTGOMERY,115,115,1,32.30493461,-86.21344991,-86.21344991,32.30493460999999
UNKNOWN109164,AL,MACON,SHORTER,115,115,1,32.35645443,-85.85515248,-85.85515247999999,32.35645443
UNKNOWN109165,AL,ELMORE,TALLASSEE,115,115,6,32.5347122,-85.88977766,-85.88977766,32.53471219999997
UNKNOWN109166,AL,TALLAPOOSA,TALLASSEE,115,115,1,32.5246606,-85.88720121,-85.88720121,32.52466059999999
UNKNOWN109167,AL,MACON,NOTASULGA,115,115,5,32.51083179,-85.67366974,-85.67366974,32.510831790000005
UNKNOWN109168,AL,ELMORE,TALLASSEE,115,-999999,5,32.57434743,-85.89165052,-85.89165052,32.574347429999996
UNKNOWN109169,AL,ELMORE,TALLASSEE,115,-999999,10,32.68061853,-85.91339774,-85.91339774,32.68061852999999
UNKNOWN109170,AL,WASHINGTON,MC INTOSH,115,115,7,31.26309653,-88.00910854,-88.00910854,31.26309652999999
UNKNOWN109171,AL,MOBILE,MOUNT VERNON,115,115,1,31.11744204,-88.01540712,-88.01540712,31.11744204
UNKNOWN109172,AL,CLARKE,GROVE HILL,230,115,5,31.76696559,-87.76449675,-87.76449675,31.76696559000001
UNKNOWN109173,AL,WASHINGTON,MC INTOSH,115,115,1,31.27512344,-88.00873963,-88.00873963,31.275123439999998
UNKNOWN109174,AL,CLARKE,FULTON,115,-999999,3,31.78054046,-87.76445775,-87.76445775,31.780540460000005
UNKNOWN109175,AL,CLARKE,THOMASVILLE,115,115,2,31.93065075,-87.75604686,-87.75604686,31.930650749999995
UNKNOWN109176,AL,MARENGO,LINDEN,115,115,3,32.22490099,-87.78318989,-87.78318989,32.22490098999999
UNKNOWN109177,AL,CHOCTAW,PENNINGTON,115,115,6,32.2312706,-88.01853085,-88.01853084999999,32.2312706
UNKNOWN109178,AL,MARENGO,GALLION,115,115,6,32.51518645,-87.7935759,-87.7935759,32.51518645
UNKNOWN109179,AL,MARENGO,LINDEN,115,115,1,32.29382895,-87.78565617,-87.78565617,32.29382894999999
UNKNOWN109181,AL,GREENE,FORKLAND,115,115,1,32.61218585,-87.82720199,-87.82720198999999,32.61218585
UNKNOWN109182,AL,WILCOX,CATHERINE,115,-999999,2,32.14659466,-87.43308963,-87.43308963,32.146594659999984
UNKNOWN109183,AL,DALLAS,SELMA,115,115,6,32.42244502,-87.06813241,-87.06813241,32.42244501999999
UNKNOWN109184,AL,DALLAS,SELMA,115,115,2,32.3806241,-87.00387985,-87.00387985,32.38062409999999
UNKNOWN109185,AL,DALLAS,SELMA,115,115,1,32.37238908,-86.99106796,-86.99106796,32.372389079999984
UNKNOWN109186,AL,LOWNDES,TYLER,115,115,1,32.3130828,-86.83704912,-86.83704912000002,32.3130828
UNKNOWN109187,AL,AUTAUGA,SELMA,115,115,4,32.32482806,-86.78697119,-86.78697119,32.32482806
UNKNOWN109188,AL,DALLAS,SELMA,115,115,2,32.42429581,-86.87123579,-86.87123579,32.42429581
UNKNOWN109189,AL,DALLAS,SELMA,115,115,2,32.47892666,-86.8937084,-86.8937084,32.47892666
UNKNOWN109190,AL,AUTAUGA,PRATTVILLE,115,-999999,3,32.59926365,-86.66735007,-86.66735007,32.59926364999999
UNKNOWN109191,AL,ELMORE,DEATSVILLE,115,115,1,32.61501917,-86.34147954,-86.34147954000001,32.615019169999975
UNKNOWN109193,AL,ELMORE,TITUS,115,115,1,32.71210873,-86.31695289,-86.31695289,32.71210872999998
UNKNOWN109195,AL,ELMORE,WETUMPKA,115,115,2,32.55352261,-86.24374183,-86.24374183,32.55352260999999
UNKNOWN109196,AL,BUTLER,GEORGIANA,115,115,1,31.64044249,-86.69649722,-86.69649722,31.64044249
UNKNOWN109197,AL,LOWNDES,TYLER,115,115,1,32.2750628,-86.74843645,-86.74843645000001,32.2750628
UNKNOWN109198,AL,CRENSHAW,LUVERNE,115,115,2,31.81501062,-86.31082647,-86.31082647,31.815010619999985
UNKNOWN109199,AL,CRENSHAW,LUVERNE,115,-999999,2,31.71294662,-86.27032228,-86.27032228000002,31.712946619999997
UNKNOWN109200,AL,LOWNDES,HAYNEVILLE,115,115,1,32.14552013,-86.68281783,-86.68281783,32.14552012999999
UNKNOWN109203,AL,MONTGOMERY,MONTGOMERY,115,115,2,32.30517486,-86.37415328,-86.37415328,32.30517486
UNKNOWN109464,KY,PULASKI,SOMERSET,345,161,6,37.04634125,-84.53796199,-84.53796199,37.04634124999999
UNKNOWN109629,MS,CLAY,CEDAR BLUFF,161,-999999,2,33.60977017,-88.78351185,-88.78351185,33.60977017
WEST GARRARD,KY,GARRARD,LANCASTER,345,345,3,37.63674682,-84.62638439,-84.62638439,37.63674681999999
UNKNOWN109204,AL,MONTGOMERY,MONTGOMERY,115,115,2,32.35712622,-86.21492886,-86.21492885999999,32.35712621999999
UNKNOWN109076,AL,MOBILE,AXIS,230,230,2,30.94077185,-88.01017188,-88.01017188,30.940771849999987
UNKNOWN109466,KY,GARRARD,LANCASTER,69,69,2,37.63674525,-84.55738003,-84.55738003,37.63674524999999
UNKNOWN109765,MS,WAYNE,SHUBUTA,-999999,-999999,1,31.80498915,-88.87897088,-88.87897088,31.80498915000001
UNKNOWN109467,KY,GARRARD,LANCASTER,69,69,3,37.61813191,-84.56426323,-84.56426323,37.61813190999999
UNKNOWN109358,AL,PIKE,TROY,-999999,-999999,1,31.78199337,-85.98677924,-85.98677924,31.781993369999995
UNKNOWN109766,MS,WAYNE,WAYNESBORO,115,-999999,3,31.67719243,-88.66109144,-88.66109144000002,31.67719242999999
UNKNOWN109468,KY,GARRARD,LANCASTER,69,69,6,37.62047389,-84.5663358,-84.56633580000002,37.62047389
UNKNOWN109077,AL,MOBILE,EIGHT MILE,230,230,3,30.81384544,-88.18586473,-88.18586473,30.81384544
UNKNOWN109206,AL,MONTGOMERY,MONTGOMERY,115,115,2,32.36096395,-86.32088054,-86.32088054,32.36096394999999
UNKNOWN109630,MS,CHOCTAW,ACKERMAN,-999999,-999999,1,33.38214429,-89.22342887,-89.22342887,33.38214428999999
UNKNOWN109359,AL,MOBILE,MOBILE,115,115,2,30.65450226,-88.12508407,-88.12508407,30.654502259999994
UNKNOWN109767,MS,GREENE,LEAKESVILLE,115,115,1,31.13753824,-88.6155945,-88.6155945,31.137538239999994
UNKNOWN109469,KY,MADISON,RICHMOND,69,69,3,37.76982567,-84.40488679,-84.40488679,37.76982567
UNKNOWN109080,AL,MOBILE,SATSUMA,115,115,3,30.86042123,-88.05384434,-88.05384434,30.860421229999993
UNKNOWN109207,AL,MONTGOMERY,MONTGOMERY,115,115,2,32.36097198,-86.29241601,-86.29241601,32.360971979999995
UNKNOWN109633,MS,ATTALA,KOSCIUSKO,500,500,2,33.01356726,-89.67529717,-89.67529717,33.013567259999995
UNKNOWN109360,AL,MOBILE,MOBILE,115,115,1,30.65464429,-88.16068026,-88.16068026,30.654644290000004
UNKNOWN109768,MS,WAYNE,WAYNESBORO,-999999,-999999,1,31.65876485,-88.63800501,-88.63800501,31.658764849999994
UNKNOWN109470,KY,GARRARD,LANCASTER,69,69,1,37.703595,-84.705598,-84.70559799999998,37.70359499999999
UNKNOWN109082,AL,MOBILE,MOBILE,115,115,5,30.7472823,-88.06574511,-88.06574511,30.74728229999999
UNKNOWN109208,AL,MONTGOMERY,MONTGOMERY,115,115,4,32.38687114,-86.27917725,-86.27917725,32.38687113999999
UNKNOWN109209,AL,MONTGOMERY,MONTGOMERY,115,115,4,32.36666553,-86.24167615,-86.24167614999999,32.36666553
UNKNOWN109210,AL,MONTGOMERY,MONTGOMERY,115,115,1,32.37438418,-86.10067978,-86.10067977999998,32.37438418
UNKNOWN109211,AL,MONTGOMERY,MONTGOMERY,115,115,1,32.39603716,-86.0716779,-86.0716779,32.396037160000006
UNKNOWN109471,KY,WHITLEY,BARBOURVILLE,69,69,1,36.7263693,-83.97614629,-83.97614629,36.7263693
UNKNOWN109212,AL,ELMORE,TALLASSEE,115,115,2,32.48345369,-85.88561646,-85.88561646000001,32.48345369
UNKNOWN109769,MS,WAYNE,WAYNESBORO,-999999,-999999,1,31.77123555,-88.60333748,-88.60333748,31.771235549999993
UNKNOWN109361,AL,MOBILE,MOBILE,115,115,1,30.62182611,-88.15637825,-88.15637825,30.62182611
UNKNOWN109635,MS,CHOCTAW,WEIR,161,161,1,33.28163572,-89.27926135,-89.27926135,33.28163572
UNKNOWN109084,AL,MOBILE,EIGHT MILE,115,115,1,30.78943796,-88.20934827,-88.20934826999999,30.789437959999994
UNKNOWN109472,KY,WHITLEY,BARBOURVILLE,-999999,-999999,0,36.7253444,-83.97783857,-83.97783857,36.7253444
UNKNOWN109636,MS,ATTALA,KOSCIUSKO,115,115,1,32.98843139,-89.54926186,-89.54926186,32.98843139
UNKNOWN109363,AL,DALLAS,SELMA,115,115,1,32.4466697,-87.01499867,-87.01499866999998,32.44666969999999
